2025-08-28T16:25:11.765901,$GPGSV,3,2,11,23,22,166,24,25,59,070,31,26,14,209,17,28,53,289,17*75
2025-08-28T16:25:12.336437,$GPRMC,082512,A,3119.7784,N,12121.7649,E,000.2,077.8,280825,006.5,W*6F
2025-08-28T16:25:12.485203,$GPGGA,082512,3119.7784,N,12121.7649,E,1,05,2.76,26.791,M,0,M,,*66
2025-08-28T16:25:12.600709,$GPGSA,A,3,10,12,23,25,32,,,,,,,,4.29,2.76,3.29*03
2025-08-28T16:25:12.736025,$GPGSV,3,3,11,29,08,128,17,31,28,262,23,32,64,357,36*4F
2025-08-28T16:25:13.336294,$GPRMC,082513,A,3119.7784,N,12121.7650,E,000.2,080.5,280825,006.5,W*63
2025-08-28T16:25:13.485246,$GPGGA,082513,3119.7784,N,12121.7650,E,1,05,2.76,26.902,M,0,M,,*6B
2025-08-28T16:25:13.600539,$GPGSA,A,3,10,12,23,25,32,,,,,,,,4.29,2.76,3.29*03
2025-08-28T16:25:13.755144,$GPGSV,3,1,11,01,00,344,26,10,60,202,30,12,30,047,21,20,,,14*4E
2025-08-28T16:25:13.783202,$SYDBG,PREPARE MSG1*11
2025-08-28T16:25:13.792324,$SYDBG,RSSI6285*11
2025-08-28T16:25:13.814058,$-c1023232.29,f736&e6ֲ;V1,11,044,Y0,&0f&f70* :cal=0x62 get=0x0[1]
2025-08-28T16:25:13.863729,!AIVDO,1,1,,B,12vg200002`cSOTAsDn39OvJ0000,0*1F
2025-08-28T16:25:13.877457,$SYDBG,TXOK,msg1,08:25:14,NTT=514,SlotNum=514,chanB*00
2025-08-28T16:25:14.336266,$GPRMC,082514,A,3119.7783,N,12121.7653,E,000.2,085.6,280825,006.5,W*66
2025-08-28T16:25:14.485070,$GPGGA,082514,3119.7783,N,12121.7653,E,1,05,2.76,27.355,M,0,M,,*61
2025-08-28T16:25:14.600541,$GPGSA,A,3,10,12,23,25,32,,,,,,,,4.29,2.76,3.29*03
2025-08-28T16:25:14.765759,$GPGSV,3,2,11,23,22,166,24,25,59,070,32,26,14,209,17,28,53,289,16*77
2025-08-28T16:25:15.336358,$GPRMC,082515,A,3119.7783,N,12121.7653,E,000.3,088.6,280825,006.5,W*6B
2025-08-28T16:25:15.485141,$GPGGA,082515,3119.7783,N,12121.7653,E,1,05,2.76,27.379,M,0,M,,*6E
2025-08-28T16:25:15.600645,$GPGSA,A,3,10,12,23,25,32,,,,,,,,4.29,2.76,3.29*03
2025-08-28T16:25:15.731999,$GPGSV,3,3,11,29,08,128,17,31,28,262,21,32,64,357,36*4D
2025-08-28T16:25:16.336208,$GPRMC,082516,A,3119.7783,N,12121.7654,E,000.3,089.7,280825,006.5,W*6F
2025-08-28T16:25:16.485158,$GPGGA,082516,3119.7783,N,12121.7654,E,1,05,2.76,27.548,M,0,M,,*6E
2025-08-28T16:25:16.600607,$GPGSA,A,3,10,12,23,25,32,,,,,,,,4.29,2.76,3.29*03
2025-08-28T16:25:16.754365,$GPGSV,3,1,11,01,00,344,25,10,60,202,29,12,30,047,21,20,,,16*47
2025-08-28T16:25:17.336275,$GPRMC,082517,A,3119.7783,N,12121.7655,E,000.3,090.8,280825,006.5,W*68
2025-08-28T16:25:17.491178,$GPGGA,082517,3119.7783,N,12121.7655,E,1,05,2.76,27.656,M,0,M,,*62
2025-08-28T16:25:17.504680,$Mc23,ٳ3Yf33Vc6,09,28VVW* :cal=0x66 get=0x0[1]
2025-08-28T16:25:17.600586,$GPGSA,A,3,10,12,23,25,32,,,,,,,,4.29,2.76,3.29*03
2025-08-28T16:25:17.765742,$GPGSV,3,2,11,23,22,166,25,25,59,070,32,26,14,209,17,28,53,289,17*77
2025-08-28T16:25:18.336297,$GPRMC,082518,A,3119.7782,N,12121.7657,E,000.3,092.4,280825,006.5,W*6A
2025-08-28T16:25:18.485027,$GPGGA,082518,3119.7782,N,12121.7657,E,1,05,2.76,27.994,M,0,M,,*6F
2025-08-28T16:25:18.601943,$GPGSA,A,3,10,12,23,25,32,,,,,,,,4.30,2.76,3.29*0B
2025-08-28T16:25:18.618649,$4;A,0.77N,13,E,15.,f3Y,*f :cal=0xd3 get=0xf0[1]
2025-08-28T16:25:18.731963,$GPGSV,3,3,11,29,08,128,18,31,28,262,22,32,64,358,37*4F
2025-08-28T16:25:19.336101,$GPRMC,082519,A,3119.7782,N,12121.7658,E,000.3,093.0,280825,006.5,W*61
2025-08-28T16:25:19.485051,$GPGGA,082519,3119.7782,N,12121.7658,E,1,05,2.76,27.987,M,0,M,,*63
2025-08-28T16:25:19.600548,$GPGSA,A,3,10,12,23,25,32,,,,,,,,4.30,2.76,3.29*0B
2025-08-28T16:25:19.754046,$GPGSV,3,1,11,01,00,344,25,10,59,202,29,12,30,047,22,20,,,16*4E
2025-08-28T16:25:20.336128,$GPRMC,082520,A,3119.7783,N,12121.7659,E,000.3,089.3,280825,006.5,W*63
2025-08-28T16:25:20.484931,$GPGGA,082520,3119.7783,N,12121.7659,E,1,05,2.76,27.774,M,0,M,,*6B
2025-08-28T16:25:20.600439,$GPGSA,A,3,10,12,23,25,32,,,,,,,,4.30,2.76,3.29*0B
2025-08-28T16:25:20.765637,$GPGSV,3,2,11,23,22,166,25,25,59,070,33,26,14,209,25,28,53,289,18*78
2025-08-28T16:25:21.336124,$GPRMC,082521,A,3119.7784,N,12121.7662,E,000.3,084.2,280825,006.5,W*61
2025-08-28T16:25:21.484922,$GPGGA,082521,3119.7784,N,12121.7662,E,1,05,2.77,27.748,M,0,M,,*6B
2025-08-28T16:25:21.600437,$GPGSA,A,3,10,12,23,25,32,,,,,,,,4.30,2.77,3.29*0A
2025-08-28T16:25:21.731946,$GPGSV,3,3,11,29,08,128,18,31,28,262,23,32,64,358,38*41
2025-08-28T16:25:22.336037,$GPRMC,082522,A,3119.7785,N,12121.7664,E,000.4,081.7,280825,006.5,W*62
2025-08-28T16:25:22.484910,$GPGGA,082522,3119.7785,N,12121.7664,E,1,05,2.77,27.904,M,0,M,,*69
2025-08-28T16:25:22.601911,$GPGSA,A,3,10,12,23,25,32,,,,,,,,4.30,2.77,3.29*0A
2025-08-28T16:25:22.629383,$GcffY,3cvVc47,225,.5,WG;cV&̖7,N,f34,E,13vv.9c*69 :cal=0x2a get=0x69[1]
2025-08-28T16:25:22.647013,$c06ofcVc0,22,WG&̖fc4Y6o3* :cal=0x60 get=0x0[1]
2025-08-28T16:25:22.753993,$GPGSV,3,1,11,01,00,344,26,10,59,202,27,12,30,047,22,20,,,14*41
2025-08-28T16:25:23.336057,$GPRMC,082523,A,3119.7785,N,12121.7664,E,000.4,080.6,280825,006.5,W*63
2025-08-28T16:25:23.484958,$GPGGA,082523,3119.7785,N,12121.7664,E,1,05,2.77,27.841,M,0,M,,*68
2025-08-28T16:25:23.600336,$GPGSA,A,3,10,12,23,25,32,,,,,,,,4.30,2.77,3.29*0A
2025-08-28T16:25:23.765639,$GPGSV,3,2,11,23,22,166,25,25,59,070,34,26,14,209,21,28,53,289,20*70
2025-08-28T16:25:23.783024,$SYDBG,PREPARE MSG1*11
2025-08-28T16:25:23.788417,$SYDBG,RSSI4010*11
2025-08-28T16:25:23.824427,!;j4*a :cal=0x5e get=0xa0[1]
2025-08-28T16:25:23.890392,!AIVDO,1,1,,A,12vg200004`cSP0AsDnC9gvf0000,0*15
2025-08-28T16:25:23.904160,$SYDBG,TXOK,msg1,08:25:24,NTT=889,SlotNum=889,chanA*00
2025-08-28T16:25:24.336075,$GPRMC,082524,A,3119.7785,N,12121.7665,E,000.3,079.4,280825,006.5,W*66
2025-08-28T16:25:24.484962,$GPGGA,082524,3119.7785,N,12121.7665,E,1,05,2.77,27.692,M,0,M,,*6E
2025-08-28T16:25:24.600253,$GPGSA,A,3,10,12,23,25,32,,,,,,,,4.30,2.77,3.29*0A
2025-08-28T16:25:24.731746,$GPGSV,3,3,11,29,08,128,20,31,28,262,25,32,64,358,38*4C
2025-08-28T16:25:25.335955,$GPRMC,082525,A,3119.7785,N,12121.7665,E,000.3,078.4,280825,006.5,W*66
2025-08-28T16:25:25.484918,$GPGGA,082525,3119.7785,N,12121.7665,E,1,05,2.77,27.624,M,0,M,,*62
2025-08-28T16:25:25.600241,$GPGSA,A,3,10,12,23,25,32,,,,,,,,4.30,2.77,3.29*0A
2025-08-28T16:25:25.754042,$GPGSV,3,1,11,01,00,344,27,10,59,202,25,12,30,047,23,20,,,20*44
2025-08-28T16:25:26.366047,$GPRMC,082526,A,3119.7785,N,12121.7665,E,000.3,078.3,280825,006.5,W*62
2025-08-28T16:25:26.514882,$GPGGA,082526,3119.7785,N,12121.7665,E,1,05,2.77,27.581,M,0,M,,*6D
2025-08-28T16:25:26.631774,$GPGSA,A,3,10,12,23,25,32,,,,,,,,4.30,2.77,3.29*0A
2025-08-28T16:25:26.640929,$GPc0833Vf665,c15&v3,M,c,*k
2025-08-28T16:25:26.648218,:cal=0x9b get=0x0[1]
2025-08-28T16:25:26.795480,$GPGSV,3,2,11,23,22,166,25,25,59,070,34,26,14,209,20,28,53,289,18*7A
2025-08-28T16:25:26.973120,$SYDBG,RXOK,msg1,08:25:27,NTT=0,SlotNum=0,chanA*00
2025-08-28T16:25:26.985596,!AIVDM,1,1,,A,16:d>rAP0K8cQl0As<jap@Hl1P00,0*7F
2025-08-28T16:25:27.336148,$GPRMC,082527,A,3119.7785,N,12121.7665,E,000.3,078.8,280825,006.5,W*68
2025-08-28T16:25:27.484844,$GPGGA,082527,3119.7785,N,12121.7665,E,1,05,2.77,27.522,M,0,M,,*65
2025-08-28T16:25:27.600404,$GPGSA,A,3,10,12,23,25,32,,,,,,,,4.30,2.77,3.29*0A
2025-08-28T16:25:27.731867,$GPGSV,3,3,11,29,08,128,17,31,28,262,24,32,64,358,38*49
2025-08-28T16:25:28.052247,$SYDBG,RXOK,msg18,08:25:28,NTT=0,SlotNum=0,chanA*00
2025-08-28T16:25:28.070592,!AIVDM,1,1,,A,B6:`omh002:qPS4Nmt<000N021Mk,0*2C
2025-08-28T16:25:28.080973,$GPc&8Y216,f&f36&36Vf*4 :cal=0x31 get=0x40[1]
2025-08-28T16:25:28.335952,$GPRMC,082528,A,3119.7785,N,12121.7665,E,000.3,078.3,280825,006.5,W*6C
2025-08-28T16:25:28.484857,$GPGGA,082528,3119.7785,N,12121.7665,E,1,05,2.77,27.324,M,0,M,,*6A
2025-08-28T16:25:28.600319,$GPGSA,A,3,10,12,23,25,32,,,,,,,,4.30,2.77,3.29*0A
2025-08-28T16:25:28.753936,$GPGSV,3,1,11,01,00,344,25,10,59,202,23,12,30,047,22,20,,,20*41
2025-08-28T16:25:29.335953,$GPRMC,082529,A,3119.7786,N,12121.7666,E,000.2,075.8,280825,006.5,W*6A
2025-08-28T16:25:29.484931,$GPGGA,082529,3119.7786,N,12121.7666,E,1,05,2.77,26.625,M,0,M,,*6E
2025-08-28T16:25:29.600176,$GPGSA,A,3,10,12,23,25,32,,,,,,,,4.30,2.77,3.29*0A
2025-08-28T16:25:29.770897,$GPGSV,3,2,11,23,22,166,25,25,59,069,34,26,14,209,20,28,53,289,17*7D
2025-08-28T16:25:29.781044,$;c3Yf6f6&,,,36fvv9*0 :cal=0xf2 get=0x0[1]
2025-08-28T16:25:30.335794,$GPRMC,082530,A,3119.7786,N,12121.7666,E,000.2,073.1,280825,006.5,W*6D
2025-08-28T16:25:30.484787,$GPGGA,082530,3119.7786,N,12121.7666,E,1,05,2.77,26.210,M,0,M,,*64
2025-08-28T16:25:30.600130,$GPGSA,A,3,10,12,23,25,32,,,,,,,,4.30,2.77,3.29*0A
2025-08-28T16:25:30.731725,$GPGSV,3,3,11,29,08,128,17,31,28,262,23,32,64,358,38*4E
2025-08-28T16:25:31.335907,$GPRMC,082531,A,3119.7786,N,12121.7666,E,000.2,071.8,280825,006.5,W*67
2025-08-28T16:25:31.490862,$GPGGA,082531,3119.7786,N,12121.7666,E,1,05,2.77,26.054,M,0,M,,*67
2025-08-28T16:25:31.502387,$Mffc31193c123fV&880f,006,W*6 :cal=0x38 get=0x60[1]
2025-08-28T16:25:31.600166,$GPGSA,A,3,10,12,23,25,32,,,,,,,,4.30,2.77,3.29*0A
2025-08-28T16:25:31.753878,$GPGSV,3,1,11,01,00,344,25,10,59,202,23,12,30,047,23,20,,,18*4B
2025-08-28T16:25:32.335854,$GPRMC,082532,A,3119.7786,N,12121.7666,E,000.2,070.9,280825,006.5,W*64
2025-08-28T16:25:32.484697,$GPGGA,082532,3119.7786,N,12121.7666,E,1,05,2.78,26.100,M,0,M,,*6B
2025-08-28T16:25:32.600134,$GPGSA,A,3,10,12,23,25,32,,,,,,,,4.30,2.78,3.29*05
2025-08-28T16:25:32.765382,$GPGSV,3,2,11,23,22,166,25,25,59,069,35,26,14,209,18,28,53,289,17*77
2025-08-28T16:25:33.335855,$GPRMC,082533,A,3119.7787,N,12121.7667,E,000.2,068.9,280825,006.5,W*6C
2025-08-28T16:25:33.484649,$GPGGA,082533,3119.7787,N,12121.7667,E,1,05,2.78,26.134,M,0,M,,*6D
2025-08-28T16:25:33.600065,$GPGSA,A,3,10,12,23,25,32,,,,,,,,4.30,2.78,3.29*05
2025-08-28T16:25:33.731493,$GPGSV,3,3,11,29,08,128,17,31,28,262,24,32,64,358,38*49
2025-08-28T16:25:33.802742,$SYDBG,PREPARE MSG1*11
2025-08-28T16:25:33.811808,$SYDBG,RSSI6576*11
2025-08-28T16:25:33.821095,$G;cffٖ77vN,12v64V,2.fccƦk
2025-08-28T16:25:33.844116,4jc61Y&,f,f&3.7ƖᲃG3,3,29,v61,223fF638* :cal=0xa6 get=0x0[1]
2025-08-28T16:25:33.863662,!AIVDO,1,1,,B,12vg200002`cSP6AsDnjdOw20000,0*1F
2025-08-28T16:25:33.877923,$SYDBG,TXOK,msg1,08:25:34,NTT=1265,SlotNum=1265,chanB*00
2025-08-28T16:25:34.340763,$GPRMC,082534,A,3119.7787,N,12121.7666,E,000.2,063.8,280825,006.5,W*60
2025-08-28T16:25:34.359508,!K#&f60fmY4h4[cs08:g4,12SlotN[fV[s*
2025-08-28T16:25:34.359787,:cal=0xa3 get=0x0[1]
2025-08-28T16:25:34.484669,$GPGGA,082534,3119.7787,N,12121.7666,E,1,05,2.78,26.081,M,0,M,,*64
2025-08-28T16:25:34.599955,$GPGSA,A,3,10,12,23,25,32,,,,,,,,4.30,2.78,3.29*05
2025-08-28T16:25:34.753766,$GPGSV,3,1,11,01,00,344,26,10,59,202,23,12,30,047,23,20,,,15*45
2025-08-28T16:25:35.335742,$GPRMC,082535,A,3119.7787,N,12121.7666,E,000.1,058.4,280825,006.5,W*66
2025-08-28T16:25:35.484526,$GPGGA,082535,3119.7787,N,12121.7666,E,1,05,2.78,26.070,M,0,M,,*6B
2025-08-28T16:25:35.600003,$GPGSA,A,3,10,12,23,25,32,,,,,,,,4.30,2.78,3.29*05
2025-08-28T16:25:35.765179,$GPGSV,3,2,11,23,22,166,25,25,59,069,35,26,14,209,22,28,53,289,17*7E
2025-08-28T16:25:36.335884,$GPRMC,082536,A,3119.7788,N,12121.7666,E,000.1,053.2,280825,006.5,W*67
2025-08-28T16:25:36.484670,$GPGGA,082536,3119.7788,N,12121.7666,E,1,05,2.78,26.243,M,0,M,,*65
2025-08-28T16:25:36.600137,$GPGSA,A,3,10,12,23,25,32,,,,,,,,4.31,2.78,3.29*04
2025-08-28T16:25:36.731640,$GPGSV,3,3,11,29,08,128,17,31,28,262,24,32,64,358,38*49
2025-08-28T16:25:37.335755,$GPRMC,082537,A,3119.7788,N,12121.7666,E,000.1,048.1,280825,006.5,W*6F
2025-08-28T16:25:37.484615,$GPGGA,082537,3119.7788,N,12121.7666,E,1,05,2.78,26.438,M,0,M,,*6E
2025-08-28T16:25:37.600031,$GPGSA,A,3,10,12,23,25,32,,,,,,,,4.31,2.78,3.29*04
2025-08-28T16:25:37.762226,$GPGSV,3,1,11,01,00,344,26,10,59,202,23,12,30,047,23,20,,,18*48
2025-08-28T16:25:37.780272,$c23,2f361,2&46,63f3YYf63F7,208*3 :cal=0xc4 get=0x30[1]
2025-08-28T16:25:38.335762,$GPRMC,082538,A,3119.7788,N,12121.7666,E,000.1,044.8,280825,006.5,W*65
2025-08-28T16:25:38.484521,$GPGGA,082538,3119.7788,N,12121.7666,E,1,05,2.78,26.458,M,0,M,,*67
2025-08-28T16:25:38.599983,$GPGSA,A,3,10,12,23,25,32,,,,,,,,4.31,2.78,3.28*05
2025-08-28T16:25:38.765111,$GPGSV,3,2,11,23,22,166,26,25,59,069,36,26,14,209,18,28,53,289,15*75
2025-08-28T16:25:39.335718,$GPRMC,082539,A,3119.7789,N,12121.7665,E,000.1,033.4,280825,006.5,W*6A
2025-08-28T16:25:39.484452,$GPGGA,082539,3119.7789,N,12121.7665,E,1,05,2.78,26.841,M,0,M,,*60
2025-08-28T16:25:39.600029,$GPGSA,A,3,10,12,23,25,32,,,,,,,,4.31,2.78,3.28*05
2025-08-28T16:25:39.731455,$GPGSV,3,3,11,29,08,128,16,31,28,262,24,32,64,358,38*48
2025-08-28T16:25:39.757869,$Gc,&32,,&,3.eVֲ;3,9,282f&4245*48 :cal=0x32 get=0x48[1]
2025-08-28T16:25:40.335625,$GPRMC,082540,A,3119.7790,N,12121.7666,E,000.1,029.7,280825,006.5,W*67
2025-08-28T16:25:40.484505,$GPGGA,082540,3119.7790,N,12121.7666,E,1,05,2.78,28.164,M,0,M,,*65
2025-08-28T16:25:40.599958,$GPGSA,A,3,10,12,23,25,32,,,,,,,,4.31,2.78,3.28*05
2025-08-28T16:25:40.753693,$GPGSV,3,1,11,01,00,344,25,10,59,202,23,12,30,047,24,20,,,19*4D
2025-08-28T16:25:41.335728,$GPRMC,082541,A,3119.7791,N,12121.7665,E,000.2,021.5,280825,006.5,W*6D
2025-08-28T16:25:41.494551,$GPGGA,082541,3119.7791,N,12121.7665,E,1,05,2.78,28.224,M,0,M,,*61
2025-08-28T16:25:41.600086,$GPGSA,A,3,10,12,23,25,32,,,,,,,,4.31,2.78,3.28*05
2025-08-28T16:25:41.765150,$GPGSV,3,2,11,23,22,166,26,25,59,069,36,26,14,209,15,28,53,290,17*72
2025-08-28T16:25:42.335605,$GPRMC,082542,A,3119.7791,N,12121.7664,E,000.1,006.5,280825,006.5,W*69
2025-08-28T16:25:42.484460,$GPGGA,082542,3119.7791,N,12121.7664,E,1,05,2.78,28.213,M,0,M,,*67
2025-08-28T16:25:42.599881,$GPGSA,A,3,10,12,23,25,32,,,,,,,,4.31,2.78,3.28*05
2025-08-28T16:25:42.731379,$GPGSV,3,3,11,29,08,128,18,31,28,262,23,32,64,358,38*41
2025-08-28T16:25:43.335650,$GPRMC,082543,A,3119.7792,N,12121.7663,E,000.2,356.0,280825,006.5,W*6C
2025-08-28T16:25:43.500481,$GPGGA,082543,3119.7792,N,12121.7663,E,1,05,2.79,28.549,M,0,M,,*6B
2025-08-28T16:25:43.512786,$,3f31̳&Nff7f6,,V6.0VV,W*$ :cal=0xff get=0x0[1]
2025-08-28T16:25:43.599866,$GPGSA,A,3,10,12,23,25,32,,,,,,,,4.31,2.79,3.28*04
2025-08-28T16:25:43.620132,$Gc1Yf6&31,9f*04 :cal=0x84 get=0x4[1]
2025-08-28T16:25:43.753468,$GPGSV,3,1,11,01,00,344,26,10,59,202,23,12,30,047,23,20,,,18*48
2025-08-28T16:25:43.802389,$SYDBG,PREPARE MSG1*11
2025-08-28T16:25:43.807726,$SYDBG,RSSI4376*11
2025-08-28T16:25:43.890570,!AIVDO,1,1,,A,12vg200002`cSOvAsDp=r?wF0000,0*18
2025-08-28T16:25:43.904898,$SYDBG,TXOK,msg1,08:25:44,NTT=1640,SlotNum=1640,chanA*00
2025-08-28T16:25:44.335533,$GPRMC,082544,A,3119.7793,N,12121.7663,E,000.2,348.2,280825,006.5,W*67
2025-08-28T16:25:44.494514,$GPGGA,082544,3119.7793,N,12121.7663,E,1,05,2.79,28.594,M,0,M,,*6D
2025-08-28T16:25:44.599910,$GPGSA,A,3,10,12,23,25,32,,,,,,,,4.31,2.79,3.28*04
2025-08-28T16:25:44.774913,$GPGSV,3,2,11,23,22,166,26,25,59,069,36,26,14,209,18,28,53,290,16*7E
2025-08-28T16:25:45.335527,$GPRMC,082545,A,3119.7793,N,12121.7662,E,000.2,345.4,280825,006.5,W*6C
2025-08-28T16:25:45.494349,$GPGGA,082545,3119.7793,N,12121.7662,E,1,05,2.79,28.602,M,0,M,,*61
2025-08-28T16:25:45.601303,$GPGSA,A,3,10,12,23,25,32,,,,,,,,4.31,2.79,3.28*04
2025-08-28T16:25:45.610440,$G5222,,26YƳ,3f3YFf,2,2fk
2025-08-28T16:25:45.628757,;k&VA,3vv3NY21v6YcF3&VfVk
2025-08-28T16:25:45.641492,vGc824679c&.7fE,3v.2,M,M,,* :cal=0x70 get=0x0[1]
2025-08-28T16:25:45.741289,$GPGSV,3,3,11,29,08,128,18,31,28,262,23,32,64,358,37*4E
2025-08-28T16:25:46.335468,$GPRMC,082546,A,3119.7793,N,12121.7662,E,000.2,341.6,280825,006.5,W*69
2025-08-28T16:25:46.494297,$GPGGA,082546,3119.7793,N,12121.7662,E,1,05,2.79,28.588,M,0,M,,*63
2025-08-28T16:25:46.599796,$GPGSA,A,3,10,12,23,25,32,,,,,,,,4.31,2.79,3.28*04
2025-08-28T16:25:46.753543,$GPGSV,3,1,11,01,00,344,26,10,59,202,25,12,30,047,23,20,,,18*4E
2025-08-28T16:25:47.335528,$GPRMC,082547,A,3119.7794,N,12121.7661,E,000.2,338.2,280825,006.5,W*66
2025-08-28T16:25:47.500401,$GPGGA,082547,3119.7794,N,12121.7661,E,1,05,2.79,28.597,M,0,M,,*68
2025-08-28T16:25:47.509511,$G;53,YfF&f592,2f47f,YE
2025-08-28T16:25:47.521993,4M&,A,v3f̳3f5,W* :cal=0xe1 get=0x0[1]
2025-08-28T16:25:47.599769,$GPGSA,A,3,10,12,23,25,32,,,,,,,,4.31,2.79,3.28*04
2025-08-28T16:25:47.764919,$GPGSV,3,2,11,23,22,166,26,25,59,069,36,26,14,209,17,28,53,290,17*70
2025-08-28T16:25:48.151370,$SYDBG,RXOK,msg1,08:25:48,NTT=0,SlotNum=0,chanA*00
2025-08-28T16:25:48.163779,!AIVDM,1,1,,A,16:d>rAP0M8cQf0As<S9k0IP1P00,0*44
2025-08-28T16:25:48.335357,$GPRMC,082548,A,3119.7794,N,12121.7661,E,000.2,335.6,280825,006.5,W*60
2025-08-28T16:25:48.484375,$GPGGA,082548,3119.7794,N,12121.7661,E,1,05,2.79,28.751,M,0,M,,*6F
2025-08-28T16:25:48.599921,$GPGSA,A,3,10,12,23,25,32,,,,,,,,4.31,2.79,3.28*04
2025-08-28T16:25:48.731160,$GPGSV,3,3,11,29,08,128,18,31,28,262,25,32,64,358,37*48
2025-08-28T16:25:49.335455,$GPRMC,082549,A,3119.7797,N,12121.7661,E,000.2,342.2,280825,006.5,W*66
2025-08-28T16:25:49.494228,$GPGGA,082549,3119.7797,N,12121.7661,E,1,05,2.79,31.761,M,0,M,,*66
2025-08-28T16:25:49.601124,$GPGSA,A,3,10,12,23,25,32,,,,,,,,4.31,2.79,3.28*04
2025-08-28T16:25:49.616330,$;cf͖f7,N121fvvfM,*3 :cal=0x32 get=0x30[1]
2025-08-28T16:25:49.753266,$GPGSV,3,1,11,01,00,344,26,10,59,202,25,12,30,047,23,20,,,16*40
2025-08-28T16:25:50.335453,$GPRMC,082550,A,3119.7801,N,12121.7662,E,000.3,352.3,280825,006.5,W*6C
2025-08-28T16:25:50.494300,$GPGGA,082550,3119.7801,N,12121.7662,E,1,05,2.79,34.737,M,0,M,,*6B
2025-08-28T16:25:50.599749,$GPGSA,A,3,10,12,23,25,32,,,,,,,,4.31,2.79,3.28*04
2025-08-28T16:25:50.774760,$GPGSV,3,2,11,23,22,166,27,25,59,069,37,26,14,209,18,28,53,290,17*7F
2025-08-28T16:25:51.335382,$GPRMC,082551,A,3119.7802,N,12121.7662,E,000.4,356.9,280825,006.5,W*67
2025-08-28T16:25:51.494191,$GPGGA,082551,3119.7802,N,12121.7662,E,1,05,2.79,35.154,M,0,M,,*6B
2025-08-28T16:25:51.601132,$GPGSA,A,3,10,12,23,25,32,,,,,,,,4.31,2.79,3.28*04
2025-08-28T16:25:51.617013,$;cfͳ19.&&33fv63VFc*3 :cal=0xa8 get=0x30[1]
2025-08-28T16:25:51.741124,$GPGSV,3,3,11,29,08,128,17,31,28,262,24,32,64,358,37*46
2025-08-28T16:25:52.335399,$GPRMC,082552,A,3119.7803,N,12121.7660,E,000.4,351.6,280825,006.5,W*6F
2025-08-28T16:25:52.494145,$GPGGA,082552,3119.7803,N,12121.7660,E,1,05,2.79,35.372,M,0,M,,*6D
2025-08-28T16:25:52.609801,$GPGSA,A,3,10,12,23,25,32,,,,,,,,4.31,2.79,3.28*04
2025-08-28T16:25:52.760181,$GPGSV,3,1,11,01,00,344,26,10,59,202,26,12,29,047,22,20,,,14*48
2025-08-28T16:25:52.769206,$G;ScAY23,32,.31279.f* :cal=0xcc get=0x0[1]
2025-08-28T16:25:53.335414,$GPRMC,082553,A,3119.7806,N,12121.7658,E,000.4,345.3,280825,006.5,W*60
2025-08-28T16:25:53.500993,$GPGGA,082553,3119.7806,N,12121.7658,E,1,05,2.79,36.218,M,0,M,,*6C
2025-08-28T16:25:53.510265,$GRc&fYc61v,11.76VcF6&25,fVe0
2025-08-28T16:25:53.525540,v;G82f619f&2v31,0&.21cM*6C :cal=0x98 get=0x6c[1]
2025-08-28T16:25:53.599643,$GPGSA,A,3,10,12,23,25,32,,,,,,,,4.31,2.79,3.28*04
2025-08-28T16:25:53.774761,$GPGSV,3,2,11,23,22,166,27,25,59,069,37,26,14,209,15,28,53,290,19*7C
2025-08-28T16:25:53.802138,$SYDBG,PREPARE MSG1*11
2025-08-28T16:25:53.807521,$SYDBG,RSSI6476*11
2025-08-28T16:25:53.863879,!AIVDO,1,1,,B,12vg200004`cSOlAsDseOOwb0000,0*35
2025-08-28T16:25:53.878125,$SYDBG,TXOK,msg1,08:25:54,NTT=2015,SlotNum=2015,chanB*00
2025-08-28T16:25:54.335326,$GPRMC,082554,A,3119.7806,N,12121.7658,E,000.4,344.4,280825,006.5,W*61
2025-08-28T16:25:54.500861,$GPGGA,082554,3119.7806,N,12121.7658,E,1,05,2.80,36.417,M,0,M,,*64
2025-08-28T16:25:54.513449,$Gcf54,9.78,N,f3,E,V&,363YY* :cal=0x90 get=0x0[1]
2025-08-28T16:25:54.599679,$GPGSA,A,3,10,12,23,25,32,,,,,,,,4.31,2.80,3.28*02
2025-08-28T16:25:54.741040,$GPGSV,3,3,11,29,08,128,18,31,28,262,23,32,64,358,37*4E
2025-08-28T16:25:55.335275,$GPRMC,082555,A,3119.7810,N,12121.7659,E,000.5,347.4,280825,006.5,W*64
2025-08-28T16:25:55.484073,$GPGGA,082555,3119.7810,N,12121.7659,E,1,05,2.80,37.990,M,0,M,,*60
2025-08-28T16:25:55.599534,$GPGSA,A,3,10,12,23,25,32,,,,,,,,4.32,2.80,3.28*01
2025-08-28T16:25:55.753248,$GPGSV,3,1,11,01,00,344,26,10,59,202,26,12,29,047,21,20,,,17*48
2025-08-28T16:25:56.335298,$GPRMC,082556,A,3119.7813,N,12121.7662,E,000.5,356.9,280825,006.5,W*61
2025-08-28T16:25:56.494234,$GPGGA,082556,3119.7813,N,12121.7662,E,1,05,2.80,39.572,M,0,M,,*66
2025-08-28T16:25:56.600965,$GPGSA,A,3,10,12,23,25,32,,,,,,,,4.32,2.80,3.28*01
2025-08-28T16:25:56.616948,$;,&5569.3fvffVc͙ٖcc,*6 :cal=0x63 get=0x60[1]
2025-08-28T16:25:56.764689,$GPGSV,3,2,11,23,22,166,27,25,59,069,37,26,14,209,19,28,53,290,18*71
2025-08-28T16:25:56.821193,$SYDBG,RXOK,msg1,08:25:57,NTT=0,SlotNum=0,chanB*00
2025-08-28T16:25:56.833708,!AIVDM,1,1,,B,16:d>rAP0N8cQcPAs<L9g@Ih1P00,0*7A
2025-08-28T16:25:57.335192,$GPRMC,082557,A,3119.7817,N,12121.7662,E,000.6,003.1,280825,006.5,W*6C
2025-08-28T16:25:57.494176,$GPGGA,082557,3119.7817,N,12121.7662,E,1,05,2.80,40.943,M,0,M,,*63
2025-08-28T16:25:57.599382,$GPGSA,A,3,10,12,23,25,32,,,,,,,,4.32,2.80,3.28*01
2025-08-28T16:25:57.730947,$GPGSV,3,3,11,29,08,128,18,31,28,262,23,32,64,358,36*4F
2025-08-28T16:25:58.335085,$GPRMC,082558,A,3119.7819,N,12121.7665,E,000.6,006.1,280825,006.5,W*6F
2025-08-28T16:25:58.494019,$GPGGA,082558,3119.7819,N,12121.7665,E,1,05,2.80,42.317,M,0,M,,*6C
2025-08-28T16:25:58.599537,$GPGSA,A,3,10,12,23,25,32,,,,,,,,4.32,2.80,3.28*01
2025-08-28T16:25:58.753168,$GPGSV,3,1,11,01,00,344,26,10,59,202,27,12,29,047,20,20,,,17*48
2025-08-28T16:25:59.335162,$GPRMC,082559,A,3119.7822,N,12121.7663,E,000.7,006.0,280825,006.5,W*60
2025-08-28T16:25:59.500019,$GPGGA,082559,3119.7822,N,12121.7663,E,1,05,2.80,43.359,M,0,M,,*68
2025-08-28T16:25:59.518355,$c,10f6&,,,32,0,fvPGS144,Y&&,12Ff&Yv3
2025-08-28T16:25:59.530983,Mچ2556v82c&33Vc;3&&Vf5*3 :cal=0xd8 get=0x30[1]
2025-08-28T16:25:59.609462,$GPGSA,A,3,10,12,23,25,32,,,,,,,,4.32,2.80,3.28*01
2025-08-28T16:25:59.780056,$GPGSV,3,2,11,23,22,166,28,25,59,069,37,26,14,209,18,28,53,290,20*74
2025-08-28T16:25:59.790358,$Gcc6&f&V3,3&.8028*
2025-08-28T16:25:59.790647,$ :cal=0x41 get=0x0[1]
2025-08-28T16:26:00.335005,$GPRMC,082600,A,3119.7823,N,12121.7662,E,000.7,002.2,280825,006.5,W*69
2025-08-28T16:26:00.483882,$GPGGA,082600,3119.7823,N,12121.7662,E,1,05,2.80,43.295,M,0,M,,*66
2025-08-28T16:26:00.600899,$GPGSA,A,3,10,12,23,25,32,,,,,,,,4.32,2.80,3.28*01
2025-08-28T16:26:00.616926,$;c393cfvffVc͙4fY,*6 :cal=0xdd get=0x60[1]
2025-08-28T16:26:00.730777,$GPGSV,3,3,11,29,08,128,18,31,28,262,24,32,64,358,36*48
2025-08-28T16:26:01.335199,$GPRMC,082601,A,3119.7824,N,12121.7659,E,000.6,356.8,280825,006.5,W*6E
2025-08-28T16:26:01.483953,$GPGGA,082601,3119.7824,N,12121.7659,E,1,05,2.80,43.007,M,0,M,,*61
2025-08-28T16:26:01.599356,$GPGSA,A,3,10,12,23,25,32,,,,,,,,4.32,2.80,3.28*01
2025-08-28T16:26:01.761553,$GPGSV,3,1,11,01,00,344,26,10,59,202,27,12,29,047,18,20,,,15*41
2025-08-28T16:26:01.771917,$GG6,106FF3YΙ27fY8,0,*41 :cal=0x64 get=0x41[1]
2025-08-28T16:26:02.334962,$GPRMC,082602,A,3119.7826,N,12121.7657,E,000.6,349.8,280825,006.5,W*6F
2025-08-28T16:26:02.483933,$GPGGA,082602,3119.7826,N,12121.7657,E,1,05,2.80,42.716,M,0,M,,*68
2025-08-28T16:26:02.599410,$GPGSA,A,3,10,12,23,25,32,,,,,,,,4.32,2.80,3.28*01
2025-08-28T16:26:02.764596,$GPGSV,3,2,11,23,22,166,27,25,59,069,37,26,14,209,20,28,53,290,18*7B
2025-08-28T16:26:03.335075,$GPRMC,082603,A,3119.7827,N,12121.7656,E,000.6,346.4,280825,006.5,W*6D
2025-08-28T16:26:03.483985,$GPGGA,082603,3119.7827,N,12121.7656,E,1,05,2.80,42.413,M,0,M,,*6F
2025-08-28T16:26:03.599335,$GPGSA,A,3,10,12,23,25,32,,,,,,,,4.32,2.80,3.28*01
2025-08-28T16:26:03.730872,$GPGSV,3,3,11,29,08,128,00,31,28,262,25,32,64,358,36*40
2025-08-28T16:26:03.801950,$SYDBG,PREPARE MSG1*11
2025-08-28T16:26:03.807270,$SYDBG,RSSI4696*11
2025-08-28T16:26:03.890354,!AIVDO,1,1,,A,12vg200006`cSOhAsE0uR?v60000,0*5A
2025-08-28T16:26:03.908614,$SYDBG,TXOK,msg1,08:26:04,NTT=140,SlotNum=140,chanA*00
2025-08-28T16:26:03.919166,$-;Mj֛;1-4mm-f*11 :cal=0x82 get=0x11[1]
2025-08-28T16:26:04.334996,$GPRMC,082604,A,3119.7828,N,12121.7656,E,000.6,346.2,280825,006.5,W*63
2025-08-28T16:26:04.483845,$GPGGA,082604,3119.7828,N,12121.7656,E,1,05,2.80,42.488,M,0,M,,*65
2025-08-28T16:26:04.599359,$GPGSA,A,3,10,12,23,25,32,,,,,,,,4.32,2.80,3.28*01
2025-08-28T16:26:04.759884,$GPGSV,3,1,11,01,00,344,26,10,59,202,28,12,29,047,18,20,,,16*4D
2025-08-28T16:26:04.760369,$,Yf&6&,,36&8*0
2025-08-28T16:26:04.768145,:cal=0x68 get=0x0[1]
2025-08-28T16:26:05.140937,$SYDBG,RXOK,msg1,08:26:05,NTT=0,SlotNum=0,chanA*00
2025-08-28T16:26:05.153423,!AIVDM,1,1,,A,16:d>rAP0N8cQa0As<F9f@H:1P00,0*43
2025-08-28T16:26:05.335065,$GPRMC,082605,A,3119.7830,N,12121.7655,E,000.6,345.4,280825,006.5,W*6D
2025-08-28T16:26:05.483792,$GPGGA,082605,3119.7830,N,12121.7655,E,1,05,2.81,42.442,M,0,M,,*69
2025-08-28T16:26:05.600797,$GPGSA,A,3,10,12,23,25,32,,,,,,,,4.32,2.81,3.28*00
2025-08-28T16:26:05.637014,!Akc,A,g6&6s<6C43RM&fVc6v6c&vfVc3F3f303Vvk4c82936c13Y38&4YM,*6 :cal=0x27 get=0x60[1]
2025-08-28T16:26:05.764330,$GPGSV,3,2,11,23,22,166,28,25,59,069,37,26,14,209,19,28,53,290,17*71
2025-08-28T16:26:06.364920,$GPRMC,082606,A,3119.7833,N,12121.7654,E,000.6,344.8,280825,006.5,W*61
2025-08-28T16:26:06.513775,$GPGGA,082606,3119.7833,N,12121.7654,E,1,05,2.81,42.997,M,0,M,,*6D
2025-08-28T16:26:06.629237,$GPGSA,A,3,10,12,23,25,32,,,,,,,,4.32,2.81,3.28*00
2025-08-28T16:26:06.760640,$GPGSV,3,3,11,29,08,128,00,31,28,262,24,32,64,358,36*41
2025-08-28T16:26:07.339967,$GPRMC,082607,A,3119.7834,N,12121.7653,E,000.6,344.7,280825,006.5,W*6F
2025-08-28T16:26:07.349032,$SV,f,11f,,8,03123f3&3V86*4
2025-08-28T16:26:07.349296,:cal=0x25 get=0x40[1]
2025-08-28T16:26:07.483756,$GPGGA,082607,3119.7834,N,12121.7653,E,1,05,2.81,42.721,M,0,M,,*6F
2025-08-28T16:26:07.599166,$GPGSA,A,3,10,12,23,25,32,,,,,,,,4.32,2.81,3.28*00
2025-08-28T16:26:07.752968,$GPGSV,3,1,11,01,00,344,26,10,59,202,28,12,29,047,18,20,,,17*4C
2025-08-28T16:26:08.200946,$SYDBG,RXOK,msg1,08:26:08,NTT=0,SlotNum=0,chanA*00
2025-08-28T16:26:08.219230,!AIVDM,1,1,,A,16:l8w000S8cP0>As7mk0@0>0000,0*23
2025-08-28T16:26:08.228024,$;c{KY;&ƭ7Z[c[s* :cal=0x3a get=0x0[1]
2025-08-28T16:26:08.334863,$GPRMC,082608,A,3119.7835,N,12121.7653,E,000.6,343.8,280825,006.5,W*69
2025-08-28T16:26:08.483749,$GPGGA,082608,3119.7835,N,12121.7653,E,1,05,2.81,42.502,M,0,M,,*62
2025-08-28T16:26:08.599212,$GPGSA,A,3,10,12,23,25,32,,,,,,,,4.32,2.81,3.28*00
2025-08-28T16:26:08.764378,$GPGSV,3,2,11,23,22,166,29,25,59,069,37,26,14,209,18,28,53,290,17*71
2025-08-28T16:26:09.334909,$GPRMC,082609,A,3119.7837,N,12121.7652,E,000.6,343.9,280825,006.5,W*6A
2025-08-28T16:26:09.483760,$GPGGA,082609,3119.7837,N,12121.7652,E,1,05,2.81,42.255,M,0,M,,*65
2025-08-28T16:26:09.600651,$GPGSA,A,3,10,12,23,25,32,,,,,,,,4.32,2.81,3.28*00
2025-08-28T16:26:09.609750,$Pjhf3c6183&.7636,39,282Y35k
2025-08-28T16:26:09.628618,4c,3.783Y2v64V2.42.Yc,*
2025-08-28T16:26:09.628850,$ :cal=0x88 get=0x0[1]
2025-08-28T16:26:09.730727,$GPGSV,3,3,11,29,08,128,00,31,28,262,24,32,64,358,36*41
2025-08-28T16:26:10.345026,$GPRMC,082610,A,3119.7838,N,12121.7652,E,000.6,344.2,280825,006.5,W*61
2025-08-28T16:26:10.499737,$GPGGA,082610,3119.7838,N,12121.7652,E,1,05,2.81,42.008,M,0,M,,*68
2025-08-28T16:26:10.519908,$GP3&,&6fF3ffF36;c8219.7c&3Ef3308fW* :cal=0xc7 get=0x0[1]
2025-08-28T16:26:10.540821,$m3<29826Λ<;prl2</7n3E6ffW*:c :cal=0x8d get=0xc[1]
2025-08-28T16:26:10.556930,$<293snƳ33*c :cal=0xd0 get=0xc[1]
2025-08-28T16:26:10.609107,$GPGSA,A,3,10,12,23,25,32,,,,,,,,4.32,2.81,3.28*00
2025-08-28T16:26:10.762872,$GPGSV,3,1,11,01,00,344,26,10,59,202,28,12,29,047,17,20,,,19*4D
2025-08-28T16:26:11.334972,$GPRMC,082611,A,3119.7839,N,12121.7653,E,000.6,346.2,280825,006.5,W*62
2025-08-28T16:26:11.483695,$GPGGA,082611,3119.7839,N,12121.7653,E,1,05,2.81,41.851,M,0,M,,*6E
2025-08-28T16:26:11.599096,$GPGSA,A,3,10,12,23,25,32,,,,,,,,4.32,2.81,3.28*00
2025-08-28T16:26:11.769827,$GPGSV,3,2,11,23,22,166,29,25,59,069,37,26,14,209,14,28,53,290,19*73
2025-08-28T16:26:11.778440,$G-c0,232,,6&,1,3*00 :cal=0xe4 get=0x0[1]
2025-08-28T16:26:12.335012,$GPRMC,082612,A,3119.7839,N,12121.7654,E,000.5,349.6,280825,006.5,W*6E
2025-08-28T16:26:12.364445,$M&6,936Y&&vF,E,.5,f&6Y,W*6k :cal=0x2e get=0x60[1]
2025-08-28T16:26:12.483535,$GPGGA,082612,3119.7839,N,12121.7654,E,1,05,2.81,41.627,M,0,M,,*65
2025-08-28T16:26:12.599003,$GPGSA,A,3,10,12,23,25,32,,,,,,,,4.32,2.81,3.28*00
2025-08-28T16:26:12.730538,$GPGSV,3,3,11,29,09,128,24,31,28,262,24,32,64,358,36*46
2025-08-28T16:26:13.334774,$GPRMC,082613,A,3119.7840,N,12121.7654,E,000.5,352.1,280825,006.5,W*6C
2025-08-28T16:26:13.483548,$GPGGA,082613,3119.7840,N,12121.7654,E,1,05,2.81,41.440,M,0,M,,*69
2025-08-28T16:26:13.599028,$GPGSA,A,3,10,12,23,25,32,,,,,,,,4.33,2.81,3.28*01
2025-08-28T16:26:13.752758,$GPGSV,3,1,11,01,00,344,27,10,59,202,28,12,29,047,17,20,,,19*4C
2025-08-28T16:26:13.801413,$SYDBG,PREPARE MSG1*11
2025-08-28T16:26:13.906994,$SYDBG,RSSI6237*11
2025-08-28T16:26:13.970612,!AIVDO,1,1,,B,12vg200005`cSOdAsE4=hOvJ0000,0*2C
2025-08-28T16:26:13.984277,$SYDBG,TXOK,msg1,08:26:14,NTT=519,SlotNum=519,chanB*00
2025-08-28T16:26:14.334878,$GPRMC,082614,A,3119.7840,N,12121.7654,E,000.5,351.9,280825,006.5,W*60
2025-08-28T16:26:14.483676,$GPGGA,082614,3119.7840,N,12121.7654,E,1,05,2.81,41.415,M,0,M,,*6E
2025-08-28T16:26:14.598943,$GPGSA,A,3,10,12,23,25,32,,,,,,,,4.33,2.81,3.28*01
2025-08-28T16:26:14.764044,$GPGSV,3,2,11,23,22,166,29,25,59,069,37,26,15,209,17,28,53,290,17*7F
2025-08-28T16:26:15.334729,$GPRMC,082615,A,3119.7840,N,12121.7652,E,000.4,347.8,280825,006.5,W*60
2025-08-28T16:26:15.483503,$GPGGA,082615,3119.7840,N,12121.7652,E,1,05,2.82,41.177,M,0,M,,*6B
2025-08-28T16:26:15.599070,$GPGSA,A,3,10,12,23,25,32,,,,,,,,4.33,2.82,3.28*02
2025-08-28T16:26:15.730401,$GPGSV,3,3,11,29,09,128,27,31,28,262,25,32,64,358,35*47
2025-08-28T16:26:16.334683,$GPRMC,082616,A,3119.7840,N,12121.7652,E,000.4,343.5,280825,006.5,W*6A
2025-08-28T16:26:16.483666,$GPGGA,082616,3119.7840,N,12121.7652,E,1,05,2.82,41.154,M,0,M,,*69
2025-08-28T16:26:16.598951,$GPGSA,A,3,10,12,23,25,32,,,,,,,,4.33,2.82,3.28*02
2025-08-28T16:26:16.752814,$GPGSV,3,1,11,01,00,344,25,10,59,202,29,12,29,047,17,20,,,20*45
2025-08-28T16:26:17.334683,$GPRMC,082617,A,3119.7840,N,12121.7652,E,000.4,341.9,280825,006.5,W*65
2025-08-28T16:26:17.483624,$GPGGA,082617,3119.7840,N,12121.7652,E,1,05,2.82,41.246,M,0,M,,*68
2025-08-28T16:26:17.598952,$GPGSA,A,3,10,12,23,25,32,,,,,,,,4.33,2.82,3.28*02
2025-08-28T16:26:17.764068,$GPGSV,3,2,11,23,21,166,29,25,59,069,36,26,15,209,18,28,53,290,17*72
2025-08-28T16:26:18.334638,$GPRMC,082618,A,3119.7840,N,12121.7651,E,000.3,340.8,280825,006.5,W*6E
2025-08-28T16:26:18.493461,$GPGGA,082618,3119.7840,N,12121.7651,E,1,05,2.82,41.851,M,0,M,,*68
2025-08-28T16:26:18.600405,$GPGSA,A,3,10,12,23,25,32,,,,,,,,4.33,2.82,3.28*02
2025-08-28T16:26:18.609598,$4Gc6684,&&ٳc1,&F51,,Y*
2025-08-28T16:26:18.616643,:cal=0xac get=0x0[1]
2025-08-28T16:26:18.740380,$GPGSV,3,3,11,29,09,128,24,31,28,262,25,32,64,358,35*44
2025-08-28T16:26:19.339558,$GPRMC,082619,A,3119.7840,N,12121.7651,E,000.3,340.4,280825,006.5,W*63
2025-08-28T16:26:19.350881,$G,31&Y23&ff&F6V65*4 :cal=0xf2 get=0x40[1]
2025-08-28T16:26:19.483548,$GPGGA,082619,3119.7840,N,12121.7651,E,1,05,2.82,42.141,M,0,M,,*62
2025-08-28T16:26:19.599005,$GPGSA,A,3,10,12,23,25,32,,,,,,,,4.33,2.82,3.28*02
2025-08-28T16:26:19.752572,$GPGSV,3,1,11,01,00,344,24,10,59,202,29,12,29,047,16,20,,,18*4E
2025-08-28T16:26:20.334541,$GPRMC,082620,A,3119.7841,N,12121.7651,E,000.3,340.1,280825,006.5,W*6D
2025-08-28T16:26:20.483538,$GPGGA,082620,3119.7841,N,12121.7651,E,1,05,2.82,42.356,M,0,M,,*6D
2025-08-28T16:26:20.598988,$GPGSA,A,3,10,12,23,25,32,,,,,,,,4.33,2.82,3.28*02
2025-08-28T16:26:20.763965,$GPGSV,3,2,11,23,21,166,29,25,59,069,36,26,15,209,17,28,53,290,17*7D
2025-08-28T16:26:21.339509,$GPRMC,082621,A,3119.7841,N,12121.7651,E,000.3,340.7,280825,006.5,W*6A
2025-08-28T16:26:21.352941,$GPc̙6Y2ΙV5f3fY͙3&7*7 :cal=0x7c get=0x70[1]
2025-08-28T16:26:21.483544,$GPGGA,082621,3119.7841,N,12121.7651,E,1,05,2.82,42.613,M,0,M,,*68
2025-08-28T16:26:21.599029,$GPGSA,A,3,10,12,23,25,32,,,,,,,,4.33,2.82,3.28*02
2025-08-28T16:26:21.730528,$GPGSV,3,3,11,29,09,128,17,31,28,262,23,32,64,358,35*42
2025-08-28T16:26:21.757022,$;c3f378c&f76Vc,͙8F2.6cƙ34cA,f,1,V3f&28* :cal=0x92 get=0x0[1]
2025-08-28T16:26:22.334627,$GPRMC,082622,A,3119.7841,N,12121.7651,E,000.2,341.3,280825,006.5,W*6D
2025-08-28T16:26:22.483632,$GPGGA,082622,3119.7841,N,12121.7651,E,1,05,2.82,42.959,M,0,M,,*6A
2025-08-28T16:26:22.598967,$GPGSA,A,3,10,12,23,25,32,,,,,,,,4.33,2.82,3.28*02
2025-08-28T16:26:22.752748,$GPGSV,3,1,11,01,00,344,25,10,59,202,28,12,29,047,16,20,,,17*41
2025-08-28T16:26:23.334644,$GPRMC,082623,A,3119.7841,N,12121.7651,E,000.2,339.5,280825,006.5,W*65
2025-08-28T16:26:23.483550,$GPGGA,082623,3119.7841,N,12121.7651,E,1,05,2.82,43.150,M,0,M,,*6B
2025-08-28T16:26:23.598969,$GPGSA,A,3,10,12,23,25,32,,,,,,,,4.33,2.82,3.28*02
2025-08-28T16:26:23.769589,$GPGSV,3,2,11,23,21,166,29,25,59,069,35,26,15,209,17,28,53,290,16*7F
2025-08-28T16:26:23.778676,$;,&623v8,N12f5V,V,2fF63,k
2025-08-28T16:26:23.790651,4jcA3&66&F332,f*0 :cal=0x6b get=0x0[1]
2025-08-28T16:26:23.801088,$SYDBG,PREPARE MSG1*11
2025-08-28T16:26:23.907015,$SYDBG,RSSI4399*11
2025-08-28T16:26:23.997164,!AIVDO,1,1,,A,12vg200002`cSOVAsE4M@wvf0000,0*56
2025-08-28T16:26:24.015391,$SYDBG,TXOK,msg1,08:26:24,NTT=894,SlotNum=894,chanA*00
2025-08-28T16:26:24.025320,$;cM ;6-Bjjjf9*1 :cal=0x73 get=0x10[1]
2025-08-28T16:26:24.334526,$GPRMC,082624,A,3119.7841,N,12121.7651,E,000.2,337.1,280825,006.5,W*68
2025-08-28T16:26:24.483340,$GPGGA,082624,3119.7841,N,12121.7651,E,1,05,2.82,43.195,M,0,M,,*65
2025-08-28T16:26:24.598807,$GPGSA,A,3,10,12,23,25,32,,,,,,,,4.33,2.82,3.28*02
2025-08-28T16:26:24.730286,$GPGSV,3,3,11,29,09,128,19,31,28,262,22,32,64,358,34*4C
2025-08-28T16:26:25.334566,$GPRMC,082625,A,3119.7841,N,12121.7650,E,000.2,333.9,280825,006.5,W*64
2025-08-28T16:26:25.493424,$GPGGA,082625,3119.7841,N,12121.7650,E,1,05,2.82,43.100,M,0,M,,*69
2025-08-28T16:26:25.608907,$GPGSA,A,3,10,12,23,25,32,,,,,,,,4.33,2.82,3.28*02
2025-08-28T16:26:25.752466,$GPGSV,3,1,11,01,00,344,26,10,59,202,28,12,29,047,15,20,,,17*41
2025-08-28T16:26:26.334541,$GPRMC,082626,A,3119.7841,N,12121.7649,E,000.2,326.6,280825,006.5,W*64
2025-08-28T16:26:26.493283,$GPGGA,082626,3119.7841,N,12121.7649,E,1,05,2.83,43.397,M,0,M,,*6F
2025-08-28T16:26:26.598808,$GPGSA,A,3,10,12,23,25,32,,,,,,,,4.33,2.83,3.28*03
2025-08-28T16:26:26.773990,$GPGSV,3,2,11,23,21,166,29,25,59,069,35,26,15,209,18,28,53,290,17*71
2025-08-28T16:26:27.339453,$GPRMC,082627,A,3119.7840,N,12121.7649,E,000.2,319.7,280825,006.5,W*69
2025-08-28T16:26:27.348714,$;;82669841c&vFY386YMk
2025-08-28T16:26:27.371994,Gjc6122ff6,,4.,2.6386;&&3,23395,6f3YV&&*7 :cal=0xc2 get=0x70[1]
2025-08-28T16:26:27.500044,$GPGGA,082627,3119.7840,N,12121.7649,E,1,05,2.83,43.468,M,0,M,,*68
2025-08-28T16:26:27.509230,$48f,3vFc&fVc͙F3.4Yc,*68 :cal=0x84 get=0x68[1]
2025-08-28T16:26:27.598777,$GPGSA,A,3,10,12,23,25,32,,,,,,,,4.33,2.83,3.28*03
2025-08-28T16:26:27.740190,$GPGSV,3,3,11,29,09,128,20,31,28,262,24,32,64,358,35*41
2025-08-28T16:26:27.749352,$Gcf&63&,,4.3.83f28*f
2025-08-28T16:26:27.755682,:cal=0x68 get=0xf0[1]
2025-08-28T16:26:27.940367,$SYDBG,RXOK,msg1,08:26:28,NTT=0,SlotNum=0,chanA*00
2025-08-28T16:26:27.952831,!AIVDM,1,1,,A,16:d>rAP0N8cQRPAs<4an@Hn1P00,0*66
2025-08-28T16:26:28.334371,$GPRMC,082628,A,3119.7840,N,12121.7649,E,000.1,318.1,280825,006.5,W*62
2025-08-28T16:26:28.360398,$SYDBG,RXOK,msg1,08:26:28,NTT=0,SlotNum=0,chanA*00
2025-08-28T16:26:28.372927,!AIVDM,1,1,,A,16:l8w000S8cP74As85RP@0n0000,0*70
2025-08-28T16:26:28.493306,$GPGGA,082628,3119.7840,N,12121.7649,E,1,05,2.83,43.528,M,0,M,,*62
2025-08-28T16:26:28.598793,$GPGSA,A,3,10,12,23,25,32,,,,,,,,4.33,2.83,3.28*03
2025-08-28T16:26:28.752376,$GPGSV,3,1,11,01,00,344,25,10,59,202,29,12,29,047,16,20,,,15*42
2025-08-28T16:26:29.334325,$GPRMC,082629,A,3119.7840,N,12121.7649,E,000.1,317.2,280825,006.5,W*6F
2025-08-28T16:26:29.483107,$GPGGA,082629,3119.7840,N,12121.7649,E,1,05,2.83,43.579,M,0,M,,*67
2025-08-28T16:26:29.598686,$GPGSA,A,3,10,12,23,25,32,,,,,,,,4.33,2.83,3.28*03
2025-08-28T16:26:29.763840,$GPGSV,3,2,11,23,21,166,29,25,59,069,35,26,15,209,17,28,53,290,18*71
2025-08-28T16:26:30.334440,$GPRMC,082630,A,3119.7840,N,12121.7650,E,000.1,319.7,280825,006.5,W*64
2025-08-28T16:26:30.499247,$GPGGA,082630,3119.7840,N,12121.7650,E,1,05,2.83,43.871,M,0,M,,*62
2025-08-28T16:26:30.510935,$M,&f6c311N&7V,,93fVV,W*v :cal=0xe get=0x0[1]
2025-08-28T16:26:30.598699,$GPGSA,A,3,10,12,23,25,32,,,,,,,,4.33,2.83,3.28*03
2025-08-28T16:26:30.730089,$GPGSV,3,3,11,29,09,128,21,31,28,262,24,32,64,359,35*41
2025-08-28T16:26:31.334354,$GPRMC,082631,A,3119.7840,N,12121.7651,E,000.1,329.2,280825,006.5,W*62
2025-08-28T16:26:31.360172,$M,ffc840c1fv000329f,W*6f :cal=0x4c get=0x6f[1]
2025-08-28T16:26:31.493132,$GPGGA,082631,3119.7840,N,12121.7651,E,1,05,2.83,44.191,M,0,M,,*62
2025-08-28T16:26:31.608654,$GPGSA,A,3,10,12,23,25,32,,,,,,,,4.34,2.83,3.28*04
2025-08-28T16:26:31.759135,$GPGSV,3,1,11,01,00,344,24,10,59,201,29,12,29,047,15,20,,,20*45
2025-08-28T16:26:31.768346,$v83fcvf6Sff[v+fkk
2025-08-28T16:26:31.777492,GPG&,317F0,&&ٳ63191,,e2
2025-08-28T16:26:31.787941,c6,1f&6f6&,,,34,3,3*04 :cal=0xfc get=0x4[1]
2025-08-28T16:26:32.334336,$GPRMC,082632,A,3119.7838,N,12121.7651,E,000.0,329.2,280825,006.5,W*6F
2025-08-28T16:26:32.493229,$GPGGA,082632,3119.7838,N,12121.7651,E,1,05,2.83,44.787,M,0,M,,*6F
2025-08-28T16:26:32.610030,$GPGSA,A,3,10,12,23,25,32,,,,,,,,4.34,2.83,3.28*04
2025-08-28T16:26:32.625988,$G;c2,f9.783c&vY,0&.83783* :cal=0xd5 get=0x0[1]
2025-08-28T16:26:32.773606,$GPGSV,3,2,11,23,21,166,29,25,59,069,35,26,15,209,19,28,53,290,16*71
2025-08-28T16:26:33.334254,$GPRMC,082633,A,3119.7834,N,12121.7649,E,000.1,201.7,280825,006.5,W*64
2025-08-28T16:26:33.492994,$GPGGA,082633,3119.7834,N,12121.7649,E,1,05,2.83,45.450,M,0,M,,*63
2025-08-28T16:26:33.598489,$GPGSA,A,3,10,12,23,25,32,,,,,,,,4.34,2.83,3.28*04
2025-08-28T16:26:33.739952,$GPGSV,3,3,11,29,09,128,19,31,28,262,24,32,64,359,35*4A
2025-08-28T16:26:33.800920,$SYDBG,PREPARE MSG1*11
2025-08-28T16:26:33.853619,$SYDBG,RSSI6264*11
2025-08-28T16:26:33.943855,!AIVDO,1,1,,B,12vg200001`cSORAsE2WpOw20000,0*13
2025-08-28T16:26:33.958025,$SYDBG,TXOK,msg1,08:26:34,NTT=1267,SlotNum=1267,chanB*00
2025-08-28T16:26:34.334313,$GPRMC,082634,A,3119.7830,N,12121.7648,E,000.2,197.1,280825,006.5,W*6F
2025-08-28T16:26:34.360197,$SYDBG,RXOK,msg1,08:26:34,NTT=0,SlotNum=0,chanB*00
2025-08-28T16:26:34.372677,!AIVDM,1,1,,B,16:d>rAP0N8cQP@As<09kPI41P00,0*65
2025-08-28T16:26:34.493055,$GPGGA,082634,3119.7830,N,12121.7648,E,1,05,2.83,46.372,M,0,M,,*65
2025-08-28T16:26:34.609940,$GPGSA,A,3,10,12,23,25,32,,,,,,,,4.34,2.83,3.28*04
2025-08-28T16:26:34.643112,$SDhcR,n&fFN5o7ZchaKDM,1,,c13gNAPP00e;ffvN,1f3,E,15,2.3.fM,* :cal=0xb0 get=0x0[1]
2025-08-28T16:26:34.752252,$GPGSV,3,1,11,01,00,344,25,10,59,201,29,12,29,047,15,20,,,19*4E
2025-08-28T16:26:35.334316,$GPRMC,082635,A,3119.7828,N,12121.7648,E,000.3,192.7,280825,006.5,W*65
2025-08-28T16:26:35.499067,$GPGGA,082635,3119.7828,N,12121.7648,E,1,05,2.83,48.048,M,0,M,,*69
2025-08-28T16:26:35.508270,$MC,f35,6f,ff648,c0.1.f8fW*6
2025-08-28T16:26:35.512459,:cal=0xb9 get=0x60[1]
2025-08-28T16:26:35.598450,$GPGSA,A,3,10,12,23,25,32,,,,,,,,4.34,2.83,3.28*04
2025-08-28T16:26:35.773620,$GPGSV,3,2,11,23,21,166,29,25,59,069,35,26,15,209,17,28,53,290,17*7E
2025-08-28T16:26:36.334330,$GPRMC,082636,A,3119.7824,N,12121.7648,E,000.4,191.1,280825,006.5,W*68
2025-08-28T16:26:36.493053,$GPGGA,082636,3119.7824,N,12121.7648,E,1,05,2.83,48.857,M,0,M,,*60
2025-08-28T16:26:36.608472,$GPGSA,A,3,10,12,23,25,32,,,,,,,,4.34,2.83,3.28*04
2025-08-28T16:26:36.639935,$Gc0f36,382c&vfF4Y,2F7YM4cc3,25,FF,2..2*4 :cal=0x7d get=0x40[1]
2025-08-28T16:26:36.740003,$GPGSV,3,3,11,29,09,128,15,31,28,262,22,32,64,359,35*40
2025-08-28T16:26:37.339048,$GPRMC,082637,A,3119.7822,N,12121.7648,E,000.5,189.5,280825,006.5,W*63
2025-08-28T16:26:37.348228,$;,2f̙&&&,64V9,3*
2025-08-28T16:26:37.350719,:cal=0xda get=0x0[1]
2025-08-28T16:26:37.492946,$GPGGA,082637,3119.7822,N,12121.7648,E,1,05,2.84,49.479,M,0,M,,*61
2025-08-28T16:26:37.608493,$GPGSA,A,3,10,12,23,25,32,,,,,,,,4.34,2.84,3.28*03
2025-08-28T16:26:37.759010,$GPGSV,3,1,11,01,00,344,27,10,59,201,29,12,29,047,14,20,,,17*43
2025-08-28T16:26:37.767568,$GSAc3Y0f3V6&,,F84,f8*03 :cal=0x5e get=0x3[1]
2025-08-28T16:26:38.334065,$GPRMC,082638,A,3119.7821,N,12121.7648,E,000.5,188.4,280825,006.5,W*6F
2025-08-28T16:26:38.493001,$GPGGA,082638,3119.7821,N,12121.7648,E,1,05,2.84,49.865,M,0,M,,*6C
2025-08-28T16:26:38.598525,$GPGSA,A,3,10,12,23,25,32,,,,,,,,4.34,2.84,3.28*03
2025-08-28T16:26:38.773690,$GPGSV,3,2,11,23,21,166,29,25,59,069,35,26,15,209,20,28,53,290,17*7A
2025-08-28T16:26:39.334100,$GPRMC,082639,A,3119.7819,N,12121.7648,E,000.5,186.8,280825,006.5,W*67
2025-08-28T16:26:39.493055,$GPGGA,082639,3119.7819,N,12121.7648,E,1,05,2.84,50.527,M,0,M,,*65
2025-08-28T16:26:39.608420,$GPGSA,A,3,10,12,23,25,32,,,,,,,,4.34,2.84,3.28*03
2025-08-28T16:26:39.739829,$GPGSV,3,3,11,29,09,128,19,31,28,263,23,32,64,359,35*4C
2025-08-28T16:26:40.334180,$GPRMC,082640,A,3119.7818,N,12121.7650,E,000.5,182.0,280825,006.5,W*6D
2025-08-28T16:26:40.492898,$GPGGA,082640,3119.7818,N,12121.7650,E,1,05,2.84,51.094,M,0,M,,*6F
2025-08-28T16:26:40.598403,$GPGSA,A,3,10,12,23,25,32,,,,,,,,4.34,2.84,3.28*03
2025-08-28T16:26:40.758972,$GPGSV,3,1,11,01,00,344,24,10,59,201,29,12,29,047,14,20,,,12*45
2025-08-28T16:26:40.766305,$G-c0,f&2,,,,34,24,3.*6 :cal=0xab get=0x60[1]
2025-08-28T16:26:41.334006,$GPRMC,082641,A,3119.7817,N,12121.7652,E,000.5,174.9,280825,006.5,W*61
2025-08-28T16:26:41.493041,$GPGGA,082641,3119.7817,N,12121.7652,E,1,05,2.84,51.463,M,0,M,,*6F
2025-08-28T16:26:41.599782,$GPGSA,A,3,10,12,23,25,32,,,,,,,,4.34,2.84,3.28*03
2025-08-28T16:26:41.616330,$;;&f431193&&vfV&c1,0fFFfc*3 :cal=0xfd get=0x30[1]
2025-08-28T16:26:41.763546,$GPGSV,3,2,11,23,21,166,29,25,59,068,35,26,15,209,17,28,53,290,17*7F
2025-08-28T16:26:42.334036,$GPRMC,082642,A,3119.7817,N,12121.7654,E,000.4,166.7,280825,006.5,W*68
2025-08-28T16:26:42.493031,$GPGGA,082642,3119.7817,N,12121.7654,E,1,05,2.84,51.823,M,0,M,,*62
2025-08-28T16:26:42.608329,$GPGSA,A,3,10,12,23,25,32,,,,,,,,4.34,2.84,3.28*03
2025-08-28T16:26:42.739814,$GPGSV,3,3,11,29,09,128,18,31,28,263,22,32,64,359,35*4C
2025-08-28T16:26:43.338903,$GPRMC,082643,A,3119.7817,N,12121.7654,E,000.4,161.9,280825,006.5,W*60
2025-08-28T16:26:43.368136,$Gc3f9.78c&vfY4Y,2.V&Y,e3;Yc6&6,2,,,,,,f3&3e6v;3,30Y&818,262f&3V5* :cal=0x91 get=0x0[1]
2025-08-28T16:26:43.492812,$GPGGA,082643,3119.7817,N,12121.7654,E,1,05,2.84,52.029,M,0,M,,*62
2025-08-28T16:26:43.608336,$GPGSA,A,3,10,12,23,25,32,,,,,,,,4.34,2.84,3.28*03
2025-08-28T16:26:43.758880,$GPGSV,3,1,11,01,00,344,26,10,59,201,29,12,29,047,14,20,,,20*46
2025-08-28T16:26:43.778361,$Gcfن1c&.764c,fFf&Yce&Gcc6Yff&,,,4.f24.f* :cal=0x68 get=0x0[1]
2025-08-28T16:26:43.800538,$SYDBG,PREPARE MSG1*11
2025-08-28T16:26:43.906934,$SYDBG,RSSI4262*11
2025-08-28T16:26:43.970452,!AIVDO,1,1,,A,12vg200004`cSOdAsDvFDwwF0000,0*0F
2025-08-28T16:26:43.984661,$SYDBG,TXOK,msg1,08:26:44,NTT=1644,SlotNum=1644,chanA*00
2025-08-28T16:26:44.334057,$GPRMC,082644,A,3119.7816,N,12121.7655,E,000.4,160.1,280825,006.5,W*6E
2025-08-28T16:26:44.492777,$GPGGA,082644,3119.7816,N,12121.7655,E,1,05,2.84,52.758,M,0,M,,*64
2025-08-28T16:26:44.598219,$GPGSA,A,3,10,12,23,25,32,,,,,,,,4.34,2.84,3.28*03
2025-08-28T16:26:44.773366,$GPGSV,3,2,11,23,21,166,29,25,59,068,35,26,15,209,20,28,53,290,17*7B
2025-08-28T16:26:45.334024,$GPRMC,082645,A,3119.7814,N,12121.7655,E,000.4,160.1,280825,006.5,W*6D
2025-08-28T16:26:45.499647,$GPGGA,082645,3119.7814,N,12121.7655,E,1,05,2.84,53.501,M,0,M,,*68
2025-08-28T16:26:45.508786,$kc645,c33&1.7Yc0.31.̙f5
2025-08-28T16:26:45.522388,v;G82814c&vfVV1&F500,M*3 :cal=0xec get=0x30[1]
2025-08-28T16:26:45.608192,$GPGSA,A,3,10,12,23,25,32,,,,,,,,4.34,2.84,3.28*03
2025-08-28T16:26:45.739662,$GPGSV,3,3,11,29,09,128,16,31,28,263,23,32,64,359,35*43
2025-08-28T16:26:46.368943,$GPRMC,082646,A,3119.7810,N,12121.7656,E,000.5,163.5,280825,006.5,W*6F
2025-08-28T16:26:46.379811,$GP3,f,2&1,266&33V*43 :cal=0x11 get=0x43[1]
2025-08-28T16:26:46.522830,$GPGGA,082646,3119.7810,N,12121.7656,E,1,05,2.84,55.045,M,0,M,,*6F
2025-08-28T16:26:46.638359,$GPGSA,A,3,10,12,23,25,32,,,,,,,,4.34,2.84,3.28*03
2025-08-28T16:26:46.798919,$GPGSV,3,1,11,01,00,344,25,10,59,201,29,12,29,047,17,20,,,19*4C
2025-08-28T16:26:46.808020,$;;&f60,212f,EV3YV3YcƦk
2025-08-28T16:26:46.817423,GSc,&&V342.8.28* :cal=0xea get=0x0[1]
2025-08-28T16:26:47.334025,$GPRMC,082647,A,3119.7810,N,12121.7656,E,000.5,164.6,280825,006.5,W*6A
2025-08-28T16:26:47.482870,$GPGGA,082647,3119.7810,N,12121.7656,E,1,05,2.85,55.234,M,0,M,,*6B
2025-08-28T16:26:47.598224,$GPGSA,A,3,10,12,23,25,32,,,,,,,,4.34,2.85,3.28*02
2025-08-28T16:26:47.768796,$GPGSV,3,2,11,23,21,166,29,25,59,068,35,26,15,209,20,28,53,290,18*74
2025-08-28T16:26:47.778014,$Gjcc&632Ff85,8*04 :cal=0x2e get=0x4[1]
2025-08-28T16:26:47.800057,$SYDBG,RXOK,msg1,08:26:48,NTT=0,SlotNum=0,chanA*00
2025-08-28T16:26:47.812625,!AIVDM,1,1,,A,16:d>rAP0N8cQLPAs;o9l0IN1P00,0*2F
2025-08-28T16:26:48.338777,$GPRMC,082648,A,3119.7810,N,12121.7656,E,000.5,163.9,280825,006.5,W*6D
2025-08-28T16:26:48.358032,$SY4;cRXn,8gfF8576CSК,1,1A,16>nl;[Ɩs0*2 :cal=0x6 get=0x20[1]
2025-08-28T16:26:48.482809,$GPGGA,082648,3119.7810,N,12121.7656,E,1,05,2.85,55.329,M,0,M,,*69
2025-08-28T16:26:48.598242,$GPGSA,A,3,10,12,23,25,32,,,,,,,,4.35,2.85,3.28*03
2025-08-28T16:26:48.729651,$GPGSV,3,3,11,29,09,128,19,31,28,263,25,32,65,359,35*4B
2025-08-28T16:26:49.333856,$GPRMC,082649,A,3119.7809,N,12121.7657,E,000.4,163.1,280825,006.5,W*6C
2025-08-28T16:26:49.492713,$GPGGA,082649,3119.7809,N,12121.7657,E,1,05,2.85,55.500,M,0,M,,*6C
2025-08-28T16:26:49.608112,$GPGSA,A,3,10,12,23,25,32,,,,,,,,4.35,2.85,3.28*03
2025-08-28T16:26:49.751751,$GPGSV,3,1,11,01,00,344,24,10,59,201,28,12,29,047,16,20,,,18*4C
2025-08-28T16:26:50.338819,$GPRMC,082650,A,3119.7808,N,12121.7658,E,000.4,161.5,280825,006.5,W*6C
2025-08-28T16:26:50.347908,$GPcA,3,252,,3fV&
2025-08-28T16:26:50.356989,훳,1,03&4V2&Y&&Fv28*
2025-08-28T16:26:50.359301,:cal=0xe5 get=0x0[1]
2025-08-28T16:26:50.492738,$GPGGA,082650,3119.7808,N,12121.7658,E,1,05,2.85,57.038,M,0,M,,*66
2025-08-28T16:26:50.608107,$GPGSA,A,3,10,12,23,25,32,,,,,,,,4.35,2.85,3.28*03
2025-08-28T16:26:50.638659,$;,&65fن121E05,Y3,PGSA1&&&5,3,,,3.8528*0 :cal=0xf2 get=0x0[1]
2025-08-28T16:26:50.773333,$GPGSV,3,2,11,23,21,166,29,25,59,068,34,26,15,209,14,28,53,290,18*72
2025-08-28T16:26:51.333884,$GPRMC,082651,A,3119.7808,N,12121.7658,E,000.4,160.6,280825,006.5,W*6F
2025-08-28T16:26:51.492645,$GPGGA,082651,3119.7808,N,12121.7658,E,1,05,2.85,57.250,M,0,M,,*6B
2025-08-28T16:26:51.608121,$GPGSA,A,3,10,12,23,25,32,,,,,,,,4.35,2.85,3.28*03
2025-08-28T16:26:51.739490,$GPGSV,3,3,11,29,09,128,17,31,28,263,22,32,65,359,34*43
2025-08-28T16:26:52.333822,$GPRMC,082652,A,3119.7807,N,12121.7658,E,000.4,161.1,280825,006.5,W*65
2025-08-28T16:26:52.488743,$GPGGA,082652,3119.7807,N,12121.7658,E,1,05,2.85,57.489,M,0,M,,*65
2025-08-28T16:26:52.517033,$cYƙ6,32,,,,,.V,3e6;;S63,29,928,,31,f,26322V6V63e682A780c2v6583Yf&f5,W* :cal=0x9a get=0x0[1]
2025-08-28T16:26:52.597939,$GPGSA,A,3,10,12,23,25,32,,,,,,,,4.35,2.85,3.28*03
2025-08-28T16:26:52.751745,$GPGSV,3,1,11,01,00,344,24,10,59,201,28,12,29,047,16,20,,,14*40
2025-08-28T16:26:53.333691,$GPRMC,082653,A,3119.7806,N,12121.7658,E,000.4,162.0,280825,006.5,W*67
2025-08-28T16:26:53.492511,$GPGGA,082653,3119.7806,N,12121.7658,E,1,05,2.85,57.905,M,0,M,,*6C
2025-08-28T16:26:53.598004,$GPGSA,A,3,10,12,23,25,32,,,,,,,,4.35,2.85,3.28*03
2025-08-28T16:26:53.763247,$GPGSV,3,2,11,23,21,166,29,25,59,068,34,26,15,209,18,28,53,290,14*72
2025-08-28T16:26:53.800312,$SYDBG,PREPARE MSG1*11
2025-08-28T16:26:53.906918,$SYDBG,RSSI6676*11
2025-08-28T16:26:53.997147,!AIVDO,1,1,,B,12vg200004`cSOlAsDsVE?wb0000,0*7C
2025-08-28T16:26:54.011491,$SYDBG,TXOK,msg1,08:26:54,NTT=2019,SlotNum=2019,chanB*00
2025-08-28T16:26:54.333744,$GPRMC,082654,A,3119.7799,N,12121.7656,E,000.5,171.9,280825,006.5,W*6D
2025-08-28T16:26:54.492574,$GPGGA,082654,3119.7799,N,12121.7656,E,1,05,2.85,61.098,M,0,M,,*64
2025-08-28T16:26:54.608049,$GPGSA,A,3,10,12,23,25,32,,,,,,,,4.35,2.85,3.28*03
2025-08-28T16:26:54.739574,$GPGSV,3,3,11,29,09,128,17,31,28,263,22,32,65,359,34*43
2025-08-28T16:26:55.333750,$GPRMC,082655,A,3119.7798,N,12121.7655,E,000.6,178.1,280825,006.5,W*6C
2025-08-28T16:26:55.499240,$GPGGA,082655,3119.7798,N,12121.7655,E,1,05,2.85,61.679,M,0,M,,*6E
2025-08-28T16:26:55.510605,$Gc055,39c&v31,0f8567Yc* :cal=0x85 get=0x0[1]
2025-08-28T16:26:55.608031,$GPGSA,A,3,10,12,23,25,32,,,,,,,,4.35,2.85,3.28*03
2025-08-28T16:26:55.761645,$GPGSV,3,1,11,01,00,344,24,10,59,201,27,12,29,047,16,20,,,16*4D
2025-08-28T16:26:56.333623,$GPRMC,082656,A,3119.7797,N,12121.7656,E,000.5,177.5,280825,006.5,W*6B
2025-08-28T16:26:56.492409,$GPGGA,082656,3119.7797,N,12121.7656,E,1,05,2.85,61.993,M,0,M,,*6A
2025-08-28T16:26:56.607968,$GPGSA,A,3,10,12,23,25,32,,,,,,,,4.35,2.85,3.28*03
2025-08-28T16:26:56.773059,$GPGSV,3,2,11,23,21,166,28,25,59,068,33,26,15,209,15,28,53,290,18*75
2025-08-28T16:26:57.333689,$GPRMC,082657,A,3119.7797,N,12121.7658,E,000.5,173.3,280825,006.5,W*66
2025-08-28T16:26:57.492431,$GPGGA,082657,3119.7797,N,12121.7658,E,1,05,2.85,63.165,M,0,M,,*66
2025-08-28T16:26:57.597983,$GPGSA,A,3,10,12,23,25,32,,,,,,,,4.35,2.85,3.28*03
2025-08-28T16:26:57.739456,$GPGSV,3,3,11,29,09,128,17,31,28,263,23,32,65,359,34*42
2025-08-28T16:26:58.333587,$GPRMC,082658,A,3119.7797,N,12121.7658,E,000.5,169.5,280825,006.5,W*64
2025-08-28T16:26:58.498451,$GPGGA,082658,3119.7797,N,12121.7658,E,1,05,2.86,63.604,M,0,M,,*6A
2025-08-28T16:26:58.519593,$Gc311,20Y&Yv̙8,6,23,9,33fᲃkC265c617797Y&65c00Y65,005,W* :cal=0x54 get=0x0[1]
2025-08-28T16:26:58.597915,$GPGSA,A,3,10,12,23,25,32,,,,,,,,4.35,2.86,3.28*00
2025-08-28T16:26:58.751554,$GPGSV,3,1,11,01,00,344,24,10,59,201,27,12,29,047,17,20,,,14*4E
2025-08-28T16:26:59.333778,$GPRMC,082659,A,3119.7795,N,12121.7660,E,000.5,166.3,280825,006.5,W*65
2025-08-28T16:26:59.492573,$GPGGA,082659,3119.7795,N,12121.7660,E,1,05,2.86,65.490,M,0,M,,*6B
2025-08-28T16:26:59.607875,$GPGSA,A,3,10,12,23,25,32,,,,,,,,4.35,2.86,3.28*00
2025-08-28T16:26:59.773029,$GPGSV,3,2,11,23,21,166,28,25,59,068,33,26,15,209,14,28,53,291,17*7A
2025-08-28T16:27:00.333705,$GPRMC,082700,A,3119.7794,N,12121.7662,E,000.5,161.3,280825,006.5,W*6C
2025-08-28T16:27:00.492481,$GPGGA,082700,3119.7794,N,12121.7662,E,1,05,2.86,66.896,M,0,M,,*6C
2025-08-28T16:27:00.607951,$GPGSA,A,3,10,12,23,25,32,,,,,,,,4.35,2.86,3.28*00
2025-08-28T16:27:00.739256,$GPGSV,3,3,11,29,09,128,16,31,28,263,23,32,65,359,33*44
2025-08-28T16:27:01.333501,$GPRMC,082701,A,3119.7792,N,12121.7664,E,000.5,157.2,280825,006.5,W*69
2025-08-28T16:27:01.492270,$GPGGA,082701,3119.7792,N,12121.7664,E,1,05,2.86,68.332,M,0,M,,*66
2025-08-28T16:27:01.607790,$GPGSA,A,3,10,12,23,25,32,,,,,,,,4.35,2.86,3.28*00
2025-08-28T16:27:01.751621,$GPGSV,3,1,11,01,00,344,25,10,59,201,27,12,29,047,17,20,,,15*4E
2025-08-28T16:27:02.333602,$GPRMC,082702,A,3119.7792,N,12121.7664,E,000.5,155.7,280825,006.5,W*6D
2025-08-28T16:27:02.492399,$GPGGA,082702,3119.7792,N,12121.7664,E,1,05,2.86,68.513,M,0,M,,*60
2025-08-28T16:27:02.597908,$GPGSA,A,3,10,12,23,25,32,,,,,,,,4.35,2.86,3.28*00
2025-08-28T16:27:02.763097,$GPGSV,3,2,11,23,21,166,28,25,59,068,33,26,15,209,14,28,53,291,16*7B
2025-08-28T16:27:02.790804,$훳c6&6fff,29,06ff33f6*7B :cal=0x5 get=0x7b[1]
2025-08-28T16:27:03.333455,$GPRMC,082703,A,3119.7790,N,12121.7664,E,000.5,157.5,280825,006.5,W*6E
2025-08-28T16:27:03.492327,$GPGGA,082703,3119.7790,N,12121.7664,E,1,05,2.86,69.535,M,0,M,,*66
2025-08-28T16:27:03.607795,$GPGSA,A,3,10,12,23,25,32,,,,,,,,4.35,2.86,3.28*00
2025-08-28T16:27:03.739146,$GPGSV,3,3,11,29,09,128,13,31,28,263,23,32,65,359,33*41
2025-08-28T16:27:03.799985,$SYDBG,PREPARE MSG1*11
2025-08-28T16:27:03.853338,$SYDBG,RSSI4431*11
2025-08-28T16:27:03.943645,!AIVDO,1,1,,A,12vg200005`cSP0AsDoV9wv60000,0*40
2025-08-28T16:27:03.961870,$SYDBG,TXOK,msg1,08:27:04,NTT=142,SlotNum=142,chanA*00
2025-08-28T16:27:03.971496,!A#{c,A,;20V`cS#v73,0*
2025-08-28T16:27:03.971694,:cal=0xd2 get=0x0[1]
2025-08-28T16:27:04.333538,$GPRMC,082704,A,3119.7790,N,12121.7664,E,000.5,158.8,280825,006.5,W*6B
2025-08-28T16:27:04.499141,$GPGGA,082704,3119.7790,N,12121.7664,E,1,05,2.86,69.667,M,0,M,,*65
2025-08-28T16:27:04.517498,!Ad1Yc;Vld6e=acv+0k;Mh827.N,12133Y45,1,2fY5eB
2025-08-28T16:27:04.530064,4c&317c&733Y&.f663*6 :cal=0xb7 get=0x60[1]
2025-08-28T16:27:04.607874,$GPGSA,A,3,10,12,23,25,32,,,,,,,,4.35,2.86,3.28*00
2025-08-28T16:27:04.751456,$GPGSV,3,1,11,01,00,344,24,10,59,201,27,12,29,047,18,20,,,16*43
2025-08-28T16:27:05.333498,$GPRMC,082705,A,3119.7790,N,12121.7664,E,000.4,159.0,280825,006.5,W*62
2025-08-28T16:27:05.492342,$GPGGA,082705,3119.7790,N,12121.7664,E,1,05,2.86,69.842,M,0,M,,*6D
2025-08-28T16:27:05.597835,$GPGSA,A,3,10,12,23,25,32,,,,,,,,4.36,2.86,3.28*03
2025-08-28T16:27:05.772804,$GPGSV,3,2,11,23,21,166,28,25,59,068,33,26,15,209,17,28,53,291,17*79
2025-08-28T16:27:05.799929,$SYDBG,RXOK,msg1,08:27:06,NTT=0,SlotNum=0,chanA*00
2025-08-28T16:27:05.812625,!AIVDM,1,1,,A,16:d>rAP0O8cQG0As;c9jhH:1P00,0*62
2025-08-28T16:27:06.333305,$GPRMC,082706,A,3119.7789,N,12121.7663,E,000.4,162.8,280825,006.5,W*6E
2025-08-28T16:27:06.492304,$GPGGA,082706,3119.7789,N,12121.7663,E,1,05,2.86,70.103,M,0,M,,*65
2025-08-28T16:27:06.607678,$GPGSA,A,3,10,12,23,25,32,,,,,,,,4.36,2.86,3.28*03
2025-08-28T16:27:06.739114,$GPGSV,3,3,11,29,09,128,15,31,28,263,22,32,65,359,32*47
2025-08-28T16:27:07.333525,$GPRMC,082707,A,3119.7788,N,12121.7661,E,000.4,169.2,280825,006.5,W*6D
2025-08-28T16:27:07.492290,$GPGGA,082707,3119.7788,N,12121.7661,E,1,05,2.86,70.103,M,0,M,,*67
2025-08-28T16:27:07.609192,$GPGSA,A,3,10,12,23,25,32,,,,,,,,4.36,2.86,3.28*03
2025-08-28T16:27:07.625992,$GP;c0803ٳ3N11.7,E,1V&,6,c* :cal=0x4a get=0x0[1]
2025-08-28T16:27:07.761336,$GPGSV,3,1,11,01,00,344,25,10,59,201,27,12,29,047,20,20,,,15*4A
2025-08-28T16:27:08.333372,$GPRMC,082708,A,3119.7788,N,12121.7660,E,000.4,175.9,280825,006.5,W*65
2025-08-28T16:27:08.492090,$GPGGA,082708,3119.7788,N,12121.7660,E,1,05,2.86,70.149,M,0,M,,*67
2025-08-28T16:27:08.607613,$GPGSA,A,3,10,12,23,25,32,,,,,,,,4.36,2.86,3.28*03
2025-08-28T16:27:08.778244,$GPGSV,3,2,11,23,21,166,28,25,59,068,33,26,15,209,18,28,53,291,17*76
2025-08-28T16:27:08.787499,$c,0Yf,252,4fff*0 :cal=0x88 get=0x0[1]
2025-08-28T16:27:09.109306,$SYDBG,RXOK,msg1,08:27:09,NTT=0,SlotNum=0,chanA*00
2025-08-28T16:27:09.121888,!AIVDM,1,1,,A,16:l8w000R8cPD8As8`Bq@0@0000,0*44
2025-08-28T16:27:09.333442,$GPRMC,082709,A,3119.7787,N,12121.7661,E,000.3,177.7,280825,006.5,W*61
2025-08-28T16:27:09.492260,$GPGGA,082709,3119.7787,N,12121.7661,E,1,05,2.87,70.236,M,0,M,,*62
2025-08-28T16:27:09.607519,$GPGSA,A,3,10,12,23,25,32,,,,,,,,4.36,2.87,3.28*02
2025-08-28T16:27:09.738971,$GPGSV,3,3,11,29,09,128,17,31,28,263,23,32,65,359,33*45
2025-08-28T16:27:10.333474,$GPRMC,082710,A,3119.7787,N,12121.7662,E,000.3,173.7,280825,006.5,W*6E
2025-08-28T16:27:10.498271,$GPGGA,082710,3119.7787,N,12121.7662,E,1,05,2.87,70.328,M,0,M,,*67
2025-08-28T16:27:10.510398,$Mcfc61187,N2123f73.08fv*6E :cal=0x48 get=0x6e[1]
2025-08-28T16:27:10.597605,$GPGSA,A,3,10,12,23,25,32,,,,,,,,4.36,2.87,3.28*02
2025-08-28T16:27:10.758193,$GPGSV,3,1,11,01,00,344,24,10,59,201,27,12,29,047,21,20,,,14*4B
2025-08-28T16:27:10.766486,$GjYc&23V,&3ffv8*0 :cal=0xd get=0x0[1]
2025-08-28T16:27:11.323349,$GPRMC,082711,A,3119.7787,N,12121.7662,E,000.3,171.2,280825,006.5,W*68
2025-08-28T16:27:11.482127,$GPGGA,082711,3119.7787,N,12121.7662,E,1,05,2.87,70.328,M,0,M,,*66
2025-08-28T16:27:11.597578,$GPGSA,A,3,10,12,23,25,32,,,,,,,,4.36,2.87,3.28*02
2025-08-28T16:27:11.762842,$GPGSV,3,2,11,23,21,166,28,25,59,068,33,26,15,209,15,28,53,291,15*79
2025-08-28T16:27:12.323173,$GPRMC,082712,A,3119.7787,N,12121.7662,E,000.3,171.2,280825,006.5,W*6B
2025-08-28T16:27:12.482122,$GPGGA,082712,3119.7787,N,12121.7662,E,1,05,2.87,70.328,M,0,M,,*65
2025-08-28T16:27:12.597631,$GPGSA,A,3,10,12,23,25,32,,,,,,,,4.36,2.87,3.28*02
2025-08-28T16:27:12.728980,$GPGSV,3,3,11,29,09,128,17,31,28,263,21,32,65,359,33*47
2025-08-28T16:27:12.744416,$GPcc6Y&fVf,4ٙ.28* :cal=0xe6 get=0x0[1]
2025-08-28T16:27:13.343200,$GPRMC,082713,A,3119.7786,N,12121.7661,E,000.3,173.5,280825,006.5,W*6D
2025-08-28T16:27:13.502009,$GPGGA,082713,3119.7786,N,12121.7661,E,1,05,2.87,71.008,M,0,M,,*66
2025-08-28T16:27:13.617542,$GPGSA,A,3,10,12,23,25,32,,,,,,,,4.36,2.87,3.28*02
2025-08-28T16:27:13.761191,$GPGSV,3,1,11,01,00,344,25,10,59,201,28,12,29,047,22,20,,,13*41
2025-08-28T16:27:13.799812,$SYDBG,PREPARE MSG1*11
2025-08-28T16:27:13.853610,$SYDBG,RSSI6539*11
2025-08-28T16:27:13.943784,!AIVDO,1,1,,B,12vg200003`cSOrAsDnViwvJ0000,0*35
2025-08-28T16:27:13.962047,$SYDBG,TXOK,msg1,08:27:14,NTT=517,SlotNum=517,chanB*00
2025-08-28T16:27:13.971553,$SYcM+11j;mSV39*
2025-08-28T16:27:13.971860, :cal=0x1e get=0x0[1]
2025-08-28T16:27:14.333231,$GPRMC,082714,A,3119.7784,N,12121.7660,E,000.3,178.1,280825,006.5,W*66
2025-08-28T16:27:14.498862,$GPGGA,082714,3119.7784,N,12121.7660,E,1,05,2.87,71.785,M,0,M,,*60
2025-08-28T16:27:14.523251,$GPc3Y,9.7cf21.30,E,06,Y&Vfe3G;cvF̖vv3NY23f&.8v8c*6 :cal=0x1f get=0x60[1]
2025-08-28T16:27:14.607508,$GPGSA,A,3,10,12,23,25,32,,,,,,,,4.36,2.87,3.28*02
2025-08-28T16:27:14.778100,$GPGSV,3,2,11,23,21,166,28,25,59,068,33,26,15,209,16,28,53,291,15*7A
2025-08-28T16:27:14.787477,$;c31f636&,,4.3,8728*0
2025-08-28T16:27:14.788015,:cal=0xa9 get=0x0[1]
2025-08-28T16:27:15.333251,$GPRMC,082715,A,3119.7783,N,12121.7659,E,000.3,185.2,280825,006.5,W*6B
2025-08-28T16:27:15.498114,$GPGGA,082715,3119.7783,N,12121.7659,E,1,05,2.87,72.666,M,0,M,,*63
2025-08-28T16:27:15.509907,$GcvV1193,212,00.8͙808fv*6B :cal=0x41 get=0x6b[1]
2025-08-28T16:27:15.607450,$GPGSA,A,3,10,12,23,25,32,,,,,,,,4.36,2.87,3.28*02
2025-08-28T16:27:15.738916,$GPGSV,3,3,11,29,09,128,18,31,29,263,20,32,65,359,32*49
2025-08-28T16:27:16.328097,$GPRMC,082716,A,3119.7783,N,12121.7659,E,000.3,189.8,280825,006.5,W*6E
2025-08-28T16:27:16.338679,$훳c6̙09,1,,̙9,20656V2*4 :cal=0x88 get=0x40[1]
2025-08-28T16:27:16.482022,$GPGGA,082716,3119.7783,N,12121.7659,E,1,05,2.87,72.666,M,0,M,,*60
2025-08-28T16:27:16.597519,$GPGSA,A,3,10,12,23,25,32,,,,,,,,4.36,2.87,3.28*02
2025-08-28T16:27:16.751074,$GPGSV,3,1,11,01,00,344,24,10,59,201,28,12,29,047,23,20,,,16*44
2025-08-28T16:27:17.328019,$GPRMC,082717,A,3119.7783,N,12121.7659,E,000.3,189.8,280825,006.5,W*6F
2025-08-28T16:27:17.340605,$G561,6,24,V,&fFv&0,,16* :cal=0x45 get=0x0[1]
2025-08-28T16:27:17.481968,$GPGGA,082717,3119.7783,N,12121.7659,E,1,05,2.87,72.666,M,0,M,,*61
2025-08-28T16:27:17.597406,$GPGSA,A,3,10,12,23,25,32,,,,,,,,4.36,2.87,3.28*02
2025-08-28T16:27:17.762651,$GPGSV,3,2,11,23,21,166,28,25,59,068,32,26,15,209,16,28,53,291,16*78
2025-08-28T16:27:17.799321,$,f65,f3f83&8f46&23,166f,25,f&&fV,2033,216*3 :cal=0xaa get=0x30[1]
2025-08-28T16:27:18.343098,$GPRMC,082718,A,3119.7782,N,12121.7657,E,000.3,195.7,280825,006.5,W*6D
2025-08-28T16:27:18.501994,$GPGGA,082718,3119.7782,N,12121.7657,E,1,05,2.87,73.432,M,0,M,,*63
2025-08-28T16:27:18.607602,$GPGSA,A,3,10,12,23,25,32,,,,,,,,4.36,2.87,3.28*02
2025-08-28T16:27:18.748897,$GPGSV,3,3,11,29,09,128,18,31,29,263,23,32,65,359,32*4A
2025-08-28T16:27:19.333026,$GPRMC,082719,A,3119.7781,N,12121.7655,E,000.3,203.6,280825,006.5,W*60
2025-08-28T16:27:19.491928,$GPGGA,082719,3119.7781,N,12121.7655,E,1,05,2.88,74.050,M,0,M,,*6B
2025-08-28T16:27:19.607370,$GPGSA,A,3,10,12,23,25,32,,,,,,,,4.36,2.88,3.28*0D
2025-08-28T16:27:19.761101,$GPGSV,3,1,11,01,00,344,24,10,59,201,29,12,29,047,24,20,,,16*42
2025-08-28T16:27:20.333088,$GPRMC,082720,A,3119.7781,N,12121.7655,E,000.3,207.1,280825,006.5,W*69
2025-08-28T16:27:20.491851,$GPGGA,082720,3119.7781,N,12121.7655,E,1,05,2.88,74.276,M,0,M,,*67
2025-08-28T16:27:20.607446,$GPGSA,A,3,10,12,23,25,32,,,,,,,,4.36,2.88,3.28*0D
