2025-08-28T15:54:42.106884,0 :cal=0x61 get=0x0[1]
2025-08-28T15:54:42.123697,$SYDBC,PREPARE VDM REPEAT*11 :cal=0x6a get=0x11[1]
2025-08-28T15:54:42.132902,$SYDBG,RSSI4435*11 :cal=0x7a get=0x11[1]
2025-08-28T15:54:42.151255,$GPRMC,075441,A,3119.7815,N,12121.7642,E,000.0,345.2,280825,006.5,W*66
2025-08-28T15:54:42.169571,$GPRMC,4,006.5,S*6E :cal=0x2d get=0x6e[1]
2025-08-28T15:54:42.178728,$SYDBG,PREPARE VDM REPEAT*11 :cal=0x6e get=0x11[1]
2025-08-28T15:54:42.187936,$SYanA*00 :cal=0x44 get=0x0[1]
2025-08-28T15:54:42.206141,$CRMC,07545,W*6B :cal=0x7b get=0x6b[1]
2025-08-28T15:54:42.224500,$GPRMC,075440,A,3119.7816,N,12121.7642,E,000.0,345.2,280825,006.5,W*64
2025-08-28T15:54:42.242794,$SYDBG,PREPARE VDM REPEAT*11 :cal=0x6e get=0x11[1]
2025-08-28T15:54:42.251908,$SYDBG,RSSI4355*11 :cal=0x7b get=0x11[1]
2025-08-28T15:54:42.270366,$SYDBG,TXOK,msg1,07:54:39,NTT=1444,SlotNum=1444,chanA*00 :cal=0x7e get=0x0[1]
2025-08-28T15:54:42.288610,$SYDBG,PREPARE MSG1*11 :cal=0x6e get=0x11[1]
2025-08-28T15:54:42.297843,$CPRFC,0359.38206.5,W*6C :cal=0x16 get=0x6c[1]
2025-08-28T15:54:42.316090,$SYDBG,PREPARE VDM REPEAT*11 :cal=0x6e get=0x11[1]
2025-08-28T15:54:42.325309,$SYDBG,RSSI4269*11 :cal=0x75 get=0x11[1]
2025-08-28T15:54:42.343591,$SYDBG,T457,SlotNum=1457,chanA*00 :cal=0x8 get=0x0[1]
2025-08-28T15:54:42.352704,$SYDBG,TXKA*00 :cal=0x61 get=0x0[1]
2025-08-28T15:54:42.371054,$SYDBC,PREPARE VDM REPEAT*11 :cal=0x6a get=0x11[1]
2025-08-28T15:54:42.380276,$SYDBG,RSSI4435*11 :cal=0x7a get=0x11[1]
2025-08-28T15:54:42.398566,$GPRMC,075441,A,3119.7815,N,12121.7642,E,000.0,345.2,280825,006.5,W*66
2025-08-28T15:54:42.416871,$GPRMC,4,006.5,S*6E :cal=0x2d get=0x6e[1]
2025-08-28T15:54:42.426048,$SYDBG,PREPARE VDM REPEAT*11 :cal=0x6e get=0x11[1]
2025-08-28T15:54:42.435204,$SYanA*00 :cal=0x44 get=0x0[1]
2025-08-28T15:54:42.444389,$CRMC,07545,W*6B :cal=0x7b get=0x6b[1]
2025-08-28T15:54:42.471797,$GPRMC,075440,A,3119.7816,N,12121.7642,E,000.0,345.2,280825,006.5,W*64
2025-08-28T15:54:42.480978,$SYDBG,PREPARE VDM REPEAT*11 :cal=0x6e get=0x11[1]
2025-08-28T15:54:42.490172,$SYD:cal=0x7b get=0x11[1]
2025-08-28T15:54:42.517591,$SYDBG,TXOK,msg1,07:54:39,NTT=1444,SlotNum=1444,chanA*00 :cal=0x7e get=0x0[1]
2025-08-28T15:54:42.526915,$SYDBG,PREPARE MSG1*11 :cal=0x6e get=0x11[1]
2025-08-28T15:54:42.545149,$CPRFC,0359.38206.5,W*6C :cal=0x16 get=0x6c[1]
2025-08-28T15:54:42.554270,$SYDBG,PREPARE VDM REPEAT*11 :cal=0x6e get=0x11[1]
2025-08-28T15:54:42.572589,$SYDBG,RSSI4269*11 :cal=0x75 get=0x11[1]
2025-08-28T15:54:42.590928,$GPRMC,075442,A,3119.7815,N,12121.7643,E,000.0,345.2,280825,006.5,W*64
2025-08-28T15:54:42.600107,$SYDBG,T457,SlotNum=1457,canA*00 :cal=0x8 get=0x0[1]
2025-08-28T15:54:42.609255,$SYt=0x0[1]
2025-08-28T15:54:42.618511,$SYDBC,PREPARE VDM REPEAT*11 :cal=0x6a get=0x11[1]
2025-08-28T15:54:42.636806,$SYDBG,RSSI4435*11 :cal=0x7a get=0x11[1]
2025-08-28T15:54:42.664271,$GPRMC,035441,A,3119.7815,N,12121.7642,E,000.0,345.2,280825,006.5,W*66 :cal=0x62 get=0x66[1]
2025-08-28T15:54:42.673403,$GPRMC,4,006.5,S*6E :cal=0x2d get=0x6e[1]
2025-08-28T15:54:42.691751,$SYDBG,PREPARE VDM REPEAT*11 :cal=0x6e =0x11[1]
2025-08-28T15:54:42.700849,$SYanA*00 :cal=0x44 get=0x0[1]
2025-08-28T15:54:42.710011,$CRMC,07545,W*6B :cal=0x7b g=0x6b[1]
2025-08-28T15:54:42.737501,$GPRMC,075440,A,311.7816,N,12121.7642,E,000.0,345.2,280825,006.5,W*64 :cal=0x41 get=0x64[1]
2025-08-28T15:54:42.755913,$GPGGA,075442,3119.7815,N,12121.7643,E,1,04,2.43,27.896,M,0,M,,*69
2025-08-28T15:54:42.765006,$SYDBG,PREPARE VDM REPEAT*11 :cal=0x6ex11[1]
2025-08-28T15:54:42.783404,$SYDBG,TXOK,msg1,07:54:39,NTT=1444,SlotNum=1444,chanA*00 :cal0x0[1]
2025-08-28T15:54:42.801645,$SYDBG,PREPARE MSG1*11 :calx11[1]
2025-08-28T15:54:42.810779,$CPRFC,0359.38206.5,W*6C :cx6c[1]
2025-08-28T15:54:42.819979,$SYDBG,PREPARE VDM REPEAT*11 :cal=0x6e get=0x11[1]
2025-08-28T15:54:42.838279,$SYDBG,RSSI4269*11 :cal=0x75 get=0x11[1]
2025-08-28T15:54:42.856609,$GPRMC,075442,A,3119.7815,N,12121.7643,E,000.0,345.2,280825,006.5,W*64
2025-08-28T15:54:42.865891,$GPGSA,A,3,10,23,25,32,,,,,,,,,5.10,2.43,4.48*0D
2025-08-28T15:54:42.884107,$SYDBG,T457,SlotNum=1457,canA*00 :cal=0x60 get=0x0[1]
2025-08-28T15:54:42.902477,$SYDBC,PREPARE VDM REPEAT*11 :cal=0x6a get=0x11[1]
2025-08-28T15:54:42.911660,$SYDBG,RSSI4435*11 :cal=0x7a get=0x11[1]
2025-08-28T15:54:42.939054,$GPRMC,035441,A,3119.7815,N,12121.7642,E,000.0,345.2,280825,006.5,W*66 :cal=0x62 get=0x66[1]
2025-08-28T15:54:42.948266,$GPRMC,4,006.5,S*6E :cal=0x2d get=0x6e[1]
2025-08-28T15:54:42.966602,$SYDBG,PREPARE VDM REPEAT*11 :cal=0x6e get=0x11[1]
2025-08-28T15:54:42.975737,$SYanA*00 :cal=0x44 get=0x0[1]
2025-08-28T15:54:42.984938,$CRMC,07545,W*6B :cal=0x7b get=0x6b[1]
2025-08-28T15:54:43.012440,$GPRMC,075440,A,311.7816,N,12121.7642,E,000.0,345.2,280825,006.5,W*64 :cal=0x41 get=0x64[1]
2025-08-28T15:54:43.030736,$GPGSV,2,2,08,25,62,102,50,28,46,268,00,31,19,250,00,32,55,337,33*7B
2025-08-28T15:54:43.049031,$SYDBG,PREPARE VDM REPEAT*11 :cal=0x6e get=0x11[1]
2025-08-28T15:54:43.067495,$SYDBG,TXOK,msg1,07:54:39,NTT=1444,SlotNu6=1444,chanA*00 :cal=0x25 get=0x0[1]
2025-08-28T15:54:43.085757,$SYDBG,PREPARE MSG1*11 :cal=0x6e get=0x11[1]
2025-08-28T15:54:43.095248,$CPRFC,0359.38206.5,W*6C :cal=0x16 get=0x6c[1]
2025-08-28T15:54:43.113276,$SYDBG,PREPARE VDM REPEAT*11 :cal=0x6e get=0x11[1]
2025-08-28T15:54:43.122583,$SYDBG,RSSI4269*11 :cal=0x75 get=0x11[1]
2025-08-28T15:54:43.149859,$GPRMC,075442,A,3119.7815,N,12121.7643,E,000.0,345.2,280825,006.5,W*64
2025-08-28T15:54:43.159342,$SYDBG,T457,SlotNum=1457,canA*00 :cal=0x60 get=0x0[1]
2025-08-28T15:54:43.177285,$SYDBC,PREPARE VDM REPEAT*11 :cal=0x6a get=0x11[1]
2025-08-28T15:54:43.186486,$SYDBG,RSSI4435*11 :cal=0x7a get=0x11[1]
2025-08-28T15:54:43.213988,$GPRMC,035441,A,3119.7815,N,12121.7642,E,000.0,345.2,280825,006.5,W*66 :cal=0x62 get=0x66[1]
2025-08-28T15:54:43.223108,$GPRMC,4,006.5,S*6E :cal=0x2d get=0x6e[1]
2025-08-28T15:54:43.241456,$SYDBG,PREPARE VDM REPEAT*11 :cal=0x6e get=0x11[1]
2025-08-28T15:54:43.250628,$SYanA*00 :cal=0x44 get=0x0[1]
2025-08-28T15:54:43.259756,$CRMC,07545,W*6B :cal=0x7b get=0x6b[1]
2025-08-28T15:54:43.287225,$GPRMC,075440,A,311.7816,N,12121.7642,E,000.0,345.2,280825,006.5,W*64 :cal=0x41 get=0x64[1]
2025-08-28T15:54:43.305614,$SYDBG,PREPARE VDM REPEAT*11 :cal=0x6e get=0x11[1]
2025-08-28T15:54:43.323942,$SYDBG,TXOK,msg1,07:54:39,NTT1444,SlotNu6=1444,chanA*00 :cal=0x6 get=0x0[1]
2025-08-28T15:54:43.342131,$SYDBG,PREPARE MSG1*11 :cal=0x6e get=0x11[1]
2025-08-28T15:54:43.351375,$CPRFC,0359.38206.5,W*6C :cal=0x16 get=0x6c[1]
2025-08-28T15:54:43.369682,$SYDBG,PREPARE VDM REPEAT*11 :cal=0x6e get=0x11[1]
2025-08-28T15:54:43.378852,$SYDBG,RSSI4269*11 :cal=0x75 get=0x11[1]
2025-08-28T15:54:43.397211,$GPRMC,075442,A,3119.7815,N,12121.7643,E,000.0,345.2,280825,006.5,W*64
2025-08-28T15:54:43.415565,$SYDBG,T457,SlotNum=1457,canA*00 :cal=0x60 get=0x0[1]
2025-08-28T15:54:43.433808,$SYDBC,PREPARE VDM REPEAT*11 :cal=0x6a get=0x11[1]
2025-08-28T15:54:43.442918,$SYDBG,RSSI4435*11 :cal=0x7a get=0x11[1]
2025-08-28T15:54:43.470431,$GPRMC,035441,A,3119.7815,N,12121.7642,E,000.0,345.2,280825,006.5,W*66 :cal=0x62 get=0x66[1]
2025-08-28T15:54:43.479636,$GPRMC,4,006.5,S*6E :cal=0x2d get=0x6e[1]
2025-08-28T15:54:43.507036,$SYDBGARE VDM REPEAT*11 :cal=0x6e get=0x1*00 :cal=0x44 get=0x0[1]
2025-08-28T15:54:43.516241,$CRMC,07545,W*6B :cal=0x7b get=0x6b[1]
2025-08-28T15:54:43.543745,$GPRMC,075440,A,311.7816,N,12121.7642,E,000.0,345.2,280825,006.5,W*64 :cal=0x41 get=0x64[1]
2025-08-28T15:54:43.552948,$SYDBG,PREPARE VDM REPEAT*11 :cal=0x6e get=0x11[1]
2025-08-28T15:54:43.580372,$SYDBG,TXOK,msg1,07:54:39,NTT1444,SlotNu6=1444,chanA*00 :cal=0x6 get=0x0[1]
2025-08-28T15:54:43.598682,$GPRMC,075443,A,3119.7815,N,12121.7644,E,000.0,345.2,280825,006.5,W*62
2025-08-28T15:54:43.607973,$SYDBG,PREPARE MSG1*11cal=0x6e get=0x11[1]
2025-08-28T15:54:43.626204,$CPRFC,0359.3 :cal=0x16 get=0x6c[1]
2025-08-28T15:54:43.635375,$SYDBG,PREPARE VDM REPEAT*11 :cal=0x6e get=0x11[1]
2025-08-28T15:54:43.644578,$SYDBG,RSSI4269*11 :cal=0x75 get=0x11[1]
2025-08-28T15:54:43.672013,$GPRMC,075442,A,3119.7815,N,12121.7643,E,000.0,345.2,280825,006.5,W*64
2025-08-28T15:54:43.681173,$SYDBG,T457,SlotNum=1457,canA*00 :cal=0x60 get=0x0[1]
2025-08-28T15:54:43.699528,$SYDBC,PREPARE VDM REPEAT*11 :cal=0x6a get=0x11[1]
2025-08-28T15:54:43.708666,$SYDBG,RSSI4435*11 :cal=0x7a get=0x11[1]
2025-08-28T15:54:43.736218,$GPRMC,035441,A,3119.7815,N,12121.7642,E,000.0,345.2,280825,006.5,W*66 :cal=0x62 get=0x66[1]
2025-08-28T15:54:43.754561,$GPGGA,075443,3119.7815,N,12121.7644,E,1,04,2.43,27.835,M,0,M,,*66
2025-08-28T15:54:43.772838,$GPRMC,4,006.5,S*6E :cal=0x2d get=0x6e[1]
2025-08-28T15:54:43.781940,$SYDBGARE VDM REPEAT*11 :cal=0x55 get=0x11[1]
2025-08-28T15:54:43.800233,$CRMC,07545,W*6B :cal=0x7b get=0x6b[1]
2025-08-28T15:54:43.818676,$GPRMC,075440,A,311.7816,N,12121.7642,E,000.0,345.2,280825,006.5,W*64 :cal=0x41 get=0x64[1]
2025-08-28T15:54:43.836917,$SYDBG,PREPARE VDM REPEAT*11 :cal=0x6e get=0x11[1]
2025-08-28T15:54:43.864456,$SYDBG,TXOK,msg1,07:54:39,NTT1444,SlotNu6=1444,chanA*00 :cal=0x6 get=0x0[1]
2025-08-28T15:54:43.873717,$GPGSA,A,3,10,23,25,32,,,,,,,,,5.10,2.43,4.48*0D
2025-08-28T15:54:43.892052,$GPRMC,075443,A,3119.7815,N,12121.7644,E,000.0,345.2,280825,006.5,W*62
2025-08-28T15:54:43.910268,$SYDBG,PREPARE MSG1*11 :cal=0x6e get=0x11[1]
2025-08-28T15:54:43.919538,$SYDBG,PREPARE VDM REPEAT*11 :cal=0x6e get=0x11[1]
2025-08-28T15:54:43.937744,$SYDBG,RSSI4269*11 :cal=0x75 get=0x11[1]
2025-08-28T15:54:43.956009,$GPRMC,075442,A,3119.7815,N,12121.7643,E,000.0,345.2,280825,006.5,W*64
2025-08-28T15:54:43.974356,$SYDBG,T457,SlotNum=1457,canA*00 :cal=0x60 get=0x0[1]
2025-08-28T15:54:43.983536,$SYDBC,PREPARE VDM REPEAT*11 :cal=0x6a get=0x11[1]
2025-08-28T15:54:44.001844,$SYDBG,RSSI4435*11 :cal=0x7a get=0x11[1]
2025-08-28T15:54:44.029304,$GPRMC,035441,A,3119.7815,N,12121.7642,E,000.0,345.2,280825,006.5,W*66 :cal=0x62 get=0x66[1]
2025-08-28T15:54:44.047620,$GPGSV,2,1,08,10,73,228,27,12,39,059,00,23,36,165,34,24,10,057,00*7B
2025-08-28T15:54:44.057245,$GPRMC,4,006'5,S*6E :cal=0x24 get=0x6e[1]
2025-08-28T15:54:44.075154,$SYDBGARE VDM REPEAT*11 :cal=0x55 get=0x11[1]
2025-08-28T15:54:44.084559,$CRMC,07545,W*6B :cal=0x7b get=0x6b[1]
2025-08-28T15:54:44.111829,$GPRMC,075440,A,311.7816,N,12121.7642,E,000.0,345.2,280825,006.5,W*64 :cal=0x41 get=0x64[1]
2025-08-28T15:54:44.121171,$SYDBG,PREPARE VDM REPEAT*11 :cal=0x6e get=0x11[1]
2025-08-28T15:54:44.148490,$SYDBG,TXOK,msg1,07:54:39,NTT1444,SlotNu6=1444,chanA*00 :cal=0x6 get=0x0[1]
2025-08-28T15:54:44.166812,$GPRMC,075443,A,3119.7815,N,12121.7644,E,000.0,345.2,280825,006.5,W*62
2025-08-28T15:54:44.175954,$SYDBG,PREPARE MSG1*11 :cal=0x6e get=0x11[1]
2025-08-28T15:54:44.194232,$SYDBG,PREPARE VDM REPEAT*11 :cal=0x6e get=0x11[1]
2025-08-28T15:54:44.203357,$SYDBG,RSSI4269*11 :cal=0x75 get=0x11[1]
2025-08-28T15:54:44.230905,$GPRMC,075442,A,3119.7815,N,12121.7643,E,000.0,345.2,280825,006.5,W*64
2025-08-28T15:54:44.240003,$SYDBG,T457,SlotNum=1457,canA*00 :cal=0x60 get=0x0[1]
2025-08-28T15:54:44.258352,$SYDBC,PREPARE VDM REPEAT*11 :cal=0x6a get=0x11[1]
2025-08-28T15:54:44.267543,$SYDBG,RSSI4435*11 :cal=0x7a get=0x11[1]
2025-08-28T15:54:44.294962,$GPRMC,035441,A,3119.7815,N,12121.7642,E,000.0,345.2,280825,006.5,W*66 :cal=0x62 get=0x66[1]
2025-08-28T15:54:44.313326,$GPRMC,4,006'5,S*6E :cal=0x24 get=0x6e[1]
2025-08-28T15:54:44.322535,$SYDBGARE VDM REPEAT*11 :cal=0x55 get=0x11[1]
2025-08-28T15:54:44.331723,$CRMC,07545,W*6B :cal=0x7b get=0x6b[1]
2025-08-28T15:54:44.359129,$GPRMC,075440,A,311.7816,N,12121.7642,E,000.0,345.2,280825,006.5,W*64 :cal=0x41 get=0x64[1]
2025-08-28T15:54:44.377462,$SYDBG,PREPARE VDM REPEAT*11 :cal=0x6e get=0x11[1]
2025-08-28T15:54:44.395787,$SYDBG,TXOK,msg1,07:54:39,NTT1444,SlotNu6=1444,chanA*00 :cal=0x6 get=0x0[1]
2025-08-28T15:54:44.423261,$GPRFC,075443,A,3119.7815,N,12121.7644,E,000.0,345.2,280825,006.5,W*62 :cal=0x69 get=0x62[1]
2025-08-28T15:54:44.441609,$SYDBG,PREPARE MSG1*11 :cal=0x6e get=0x11[1]
2025-08-28T15:54:44.450819,$SYDBG,PREPARE VDM REPEAT*11 :cal=0x6e get=0x11[1]
2025-08-28T15:54:44.469003,$SYDBG,RSSI4269*11 :cal=0x75 get=0x11[1]
2025-08-28T15:54:44.487375,$GPRMC,075442,A,3119.7815,N,12121.7643,E,000.0,345.2,280825,006.5,W*64
2025-08-28T15:54:44.496569,$SYDBG,T457,SlotNum=1457,canA*0 get=0x0[1]
2025-08-28T15:54:44.505715,$SYDBC,PREPARE VDM REP=0x11[1]
2025-08-28T15:54:44.514964,$SYDBG,RSSI4435*11 :cal=0=0x11[1]
2025-08-28T15:54:44.542420,$GPRMC,035441,A,3119.7815,N,12121.7642,E,000.0,345.2,280825,006.5,W*66 :cal=0x62 get=0x66[1]
2025-08-28T15:54:44.560662,$GPRMC,4,006'5,S*6E :cal=0x24 get=0x6e[1]
2025-08-28T15:54:44.569807,$SYDBGARE VDM REPEAT*11 :cal=0x11[1]
2025-08-28T15:54:44.588240,$GPRMC,075444,A,3119.7815,N,12121.7644,E,000.0,345.2,280825,006.5,W*65
2025-08-28T15:54:44.615676,$CRMC,07545,W*6B :cal=0=0x,000.0,345.2,280825,006.5,W*64 :cal=0x48 get=0x64[1]
2025-08-28T15:54:44.624770,$SYDBG,PREPARE VDM REPEAT*11 :cal=0x6e get=0x11[1]
2025-08-28T15:54:44.652301,$SYDBG,TXOK,msg1,07:54:39,NTT1444,SlotNu6=1444,chanA*00 :cal=0x6 get=0x0[1]
2025-08-28T15:54:44.679723,$GPRFC,075443,A,3119.7815,N,12121.7644,E,000.0,345.2,280825,006.5,W*62 :cal=0x69 get=0x62[1]
2025-08-28T15:54:44.688960,$SYDBG,PREPARE MSG1*11 :cal=0x6e get=0x11[1]
2025-08-28T15:54:44.707243,$SYDBG,PREPARE VDM REPEAT*11 :cal=0x6e get=0x11[1]
2025-08-28T15:54:44.716426,$SYDBG,RSSI4269*11 :cal=0x75 get=0x11[1]
2025-08-28T15:54:44.734778,$GPGGA,075444,3119.7815,N,12121.7644,E,1,04,2.43,27.832,M,0,M,,*66
2025-08-28T15:54:44.762219,$GPRMC,075442,A,311.7815,N,12121.7643,E,000.0,345.2,280825,006.5,W*64 :cal=0x41 get=0x64[1]
2025-08-28T15:54:44.780603,$SYDBG,T457,SlotNum=1457,canA*0  :cal=0x60 get=0x0[1]
2025-08-28T15:54:44.789767,$SYDBG,RSSI4435*11 :cal=0x7a get=0x11[1]
2025-08-28T15:54:44.817213,$GPRMC,035441,A,3119.7815,N,12121.7642,E,000.0,345.2,280825,006.5,W*66 :cal=0x62 get=0x66[1]
2025-08-28T15:54:44.826389,$GPRMC,4,006'5,S*6E :cal=0x24 get=0x6e[1]
2025-08-28T15:54:44.844730,$SYDBGARE VDM REPEAT*11 :cal=0x55 get=0x11[1]
2025-08-28T15:54:44.853924,$CRMC,07545,W*6B :cal=0x7b get=0x6b[1]
2025-08-28T15:54:44.872226,$GPRMC,075444,A,3119.7815,N,12121.7644,E,000.0,345.2,280825,006.5,W*65
2025-08-28T15:54:44.890527,$GPGSA,A,3,10,23,25,32,,,,,,,,,5.10,2.43,4.48*0D
2025-08-28T15:54:44.899686,$SYDBG,PREPARE VDM REPEAT*11 :cal=0x6e get=0x11[1]
2025-08-28T15:54:44.927194,$SYDBG,TXOK,msg1,07:54:39,NTT1444,SlotNu6=1444,chanA*00 :cal=0x6 get=0x0[1]
2025-08-28T15:54:44.954678,$GPRFC,075443,A,3119.7815,N,12121.7644,E,000.0,345.2,280825,006.5,W*62 :cal=0x69 get=0x62[1]
2025-08-28T15:54:44.963798,$SYDBG,PREPARE MSG1*11 :cal=0x6e get=0x11[1]
2025-08-28T15:54:44.982069,$SYDBG,PREPARE VDM REPEAT*11 :cal=0x6e get=0x11[1]
2025-08-28T15:54:44.991313,$SYDBG,RSSI4269*11 :cal=0x75 get=0x11[1]
2025-08-28T15:54:45.009599,$GPGSV,2,2,08,25,62,102,50,28,46,268,00,31,19,250,00,32,55,337,33*7B
2025-08-28T15:54:45.037059,$GPRMC,075442,A,311.7815,N,12121.7643,E,000.0,345.2,280825,006.5,W*64 :cal=0x41 get=0x64[1]
2025-08-28T15:54:45.055394,$SYDBG,T457,SlotNum=1457,canA*0  :cal=0x60 get=0x0[1]
2025-08-28T15:54:45.064614,$SYDBG,RSSI4435*11 :cal=0x7a get=0x11[1]
2025-08-28T15:54:45.092033,$GPRMC,035441,A,3119.7815,N,12121.7642,E,000.0,345.2,280825,006.5,W*66 :cal=0x62 get=0x66[1]
2025-08-28T15:54:45.110346,$GPRMC,4,006'5,S*6E :cal=0x24 get=0x6e[1]
2025-08-28T15:54:45.119540,$SYDBGARE VDM REPEAT*11 :cal=0x55 get=0x11[1]
2025-08-28T15:54:45.128805,$CRMC,07545,W*6B :cal=0x7b get=0x6b[1]
2025-08-28T15:54:45.156163,$GPRMC,075444,A,3119.7815,N,12121.7644,E,000.0,345.2,280825,006.5,W*65
2025-08-28T15:54:45.165352,$SYDBG,PREPARE VDM REPEAT*11 :cal=0x6e get=0x11[1]
2025-08-28T15:54:45.192843,$SYDBG,TXOK,msg1,07:54:39,NTT1444,SlotNu6=1444,chanA*00 :cal=0x6 get=0x0[1]
2025-08-28T15:54:45.220376,$GPRFC,075443,A,3119.7815,N,12121.7644,E,000.0,345.2,280825,006.5,W*62 :cal=0x69 get=0x62[1]
2025-08-28T15:54:45.229520,$SYDBG,PREPARE MSG1*11 :cal=0x6e get=0x11[1]
2025-08-28T15:54:45.247839,$SYDBG,PREPARE VDM REPEAT*11 :cal=0x6e get=0x11[1]
2025-08-28T15:54:45.256941,$SYDBG,RSSI4269*11 :cal=0x75 get=0x11[1]
2025-08-28T15:54:45.284491,$GPRMC,075442,A,311.7815,N,12121.7643,E,000.0,345.2,280825,006.5,S*64 :cal=0x45 get=0x64[1]
2025-08-28T15:54:45.302765,$SYDBG,T457,SlotNum=1457,canA*0  :cal=0x60 get=0x0[1]
2025-08-28T15:54:45.311935,$SYDBG,RSSI4435*11 :cal=0x7a get=0x11[1]
2025-08-28T15:54:45.339447,$GPRMC,035441,A,3119.7815,N,12121.7642,E,000.0,345.2,280825,006.5,W*66 :cal=0x62 get=0x66[1]
2025-08-28T15:54:45.348662,$GPRMC,4,006'5,S*6E :cal=0x24 get=0x6e[1]
2025-08-28T15:54:45.366933,$SYDBGARE VDM REPEAT*11 :cal=0x55 get=0x11[1]
2025-08-28T15:54:45.376053,$CRMC,07545,W*6B :cal=0x7b get=0x6b[1]
2025-08-28T15:54:45.394401,$GPRMC,075444,A,3119.7815,N,12121.7644,E,000.0,345.2,280825,006.5,W*65
2025-08-28T15:54:45.412715,$SYDBG,PREPARE VDM REPEAT*11 :cal=0x6e get=0x11[1]
2025-08-28T15:54:45.431011,$SYDBG,TXOK,msg1,0754:39,NTT1444,SlotNu6=1444,cha7A*00 :cal=0x78 get=0x0[1]
2025-08-28T15:54:45.458554,$GPRFC,075443,A,3119.7815,N,12121.7644,E,000.0,345.2,280825,006.5,W*62 :cal=0x69 get=0x62[1]
2025-08-28T15:54:45.476829,$SYDBG,PREPARE MSG1*11 :cal=0x6e get=0x11[1]
2025-08-28T15:54:45.486010,$SYDBG,PREPARE VDM REPEAT*11 :cal=0x6e get=0x11[1]
2025-08-28T15:54:45.504343,$SYDBG,RSSI4269*11 :cal=0x75 get=0x11[1]
2025-08-28T15:54:45.531806,$GPRMC,075442,A,311.7815,N,12121.7643,E,000.0,345.2,280825,006.5,S*64 :cal=0x45 get=0x64[1]
2025-08-28T15:54:45.540982,$SYDBG,T457,SlotNum=1457,canA*0  :cal=0x60 get=0x0[1]
2025-08-28T15:54:45.559308,$SYDBG,RSSI4435*11 :cal=0x7a get=0x11[1]
2025-08-28T15:54:45.577630,$GPRMC,075445,A,3119.7815,N,12121.7644,E,000.0,345.2,280825,006.5,W*64
2025-08-28T15:54:45.605094,$GPRMC,035441,A,3119.7815,N,12121.7642,E,000.0,345.2,280825,006.5,W*66 :cal=0x62 get=0x66[1]
2025-08-28T15:54:45.614305,$GPRMC, :cal=0x24 get=0x6e[1]
2025-08-28T15:54:45.623422,$SYDBGARE VDM REPEAT*11 :cal=0x55 get=0x11[1]
2025-08-28T15:54:45.632720,$CRMC,07545,W*6B :cal=0x7b get=0x6b[1]
2025-08-28T15:54:45.660080,$GPRMC,075444,A,3119.7815,N,12121.7644,E,000.0,345.2,280825,006.5,W*65
2025-08-28T15:54:45.669317,$SYDBG,PREPARE VDM REPEAT*11 :cal=0x6e get=0x11[1]
2025-08-28T15:54:45.696742,$SYDBG,TXOK,msg1,0754:39,NTT1444,SlotNu6=1444,cha7A*00 :cal=0x78 get=0x0[1]
2025-08-28T15:54:45.724232,$GPRFC,075443,A,3119.7815,N,12121.7644,E,000.0,345.2,280825,006.5,W*62 :cal=0x69 get=0x62[1]
2025-08-28T15:54:45.733422,$SYDBG,PREPARE MSG1*11 :cal=0x6e get=0x11[1]
2025-08-28T15:54:45.751773,$GPGGA,075445,3119.7815,N,12121.7644,E,1,04,2.43,27.760,M,0,M,,*6F
2025-08-28T15:54:45.770002,$SYDBG,PREPARE VDM REPEAT*11 :cal=0x6e get=0x11[1]
2025-08-28T15:54:45.779243,$SYDBG,RSSI4269*11 :cal=0x75 get=0x11[1]
2025-08-28T15:54:45.806664,$GPRMC,075442,A,311.7815,N,12121.7643,E,000.0,345.2,280825,006.5,S*64 :cal=0x45 get=0x64[1]
2025-08-28T15:54:45.824969,$SYDBG,T457,SlotNum=1457,canA*0  :cal=0x60 get=0x0[1]
2025-08-28T15:54:45.834171,$SYDBG,RSSI4435*11 :cal=0x7a get=0x11[1]
2025-08-28T15:54:45.852546,$GPRMC,075445,A,3119.7815,N,12121.7644,E,000.0,345.2,280825,006.5,W*64
2025-08-28T15:54:45.870844,$GPGSA,A,3,10,23,25,32,,,,,,,,,5.10,2.43,4.48*0D
2025-08-28T15:54:45.898322,$GPRMC,035441,A,3119.7815,N,12121.7642,E,000.0,345.2,280825,006.5,W*66 :cal=0x62 get=0x66[1]
2025-08-28T15:54:45.907443,$SYDBGARE VDM REPEAT*11 :cal=0x55 get=0x11[1]
2025-08-28T15:54:45.925723,$CRMC,07545,W*6B :cal=0x7b get=0x6b[1]
2025-08-28T15:54:45.944046,$GPRMC,075444,A,3119.7815,N,12121.7644,E,000.0,345.2,280825,006.5,W*65
2025-08-28T15:54:45.962413,$SYDBG,PREPARE VDM REPEAT*11 :cal=0x6e get=0x11[1]
2025-08-28T15:54:45.980756,$SYDBG,TXOK,msg1,0754:39,NTT1444,SlotNu6=1444,cha7A*00 :cal=0x78 get=0x0[1]
2025-08-28T15:54:46.008259,$GPRFC,075443,A,3119.7815,N,12121.7644,E,000.0,345.2,280825,006.5,W*62 :cal=0x69 get=0x62[1]
2025-08-28T15:54:46.017507,$SYDBG,PREPARE MSG1*11 :cal=0x6e get=0x11[1]
2025-08-28T15:54:46.044865,$GPGSV,2,1,08,10,73,228,27,12,39,059,00,23,36,165,34,24,10,057,00*7B
2025-08-28T15:54:46.054039,$SYDBG,PREPARE VDM REPEAT*11 :cal=0x6e get=0x11[1]
2025-08-28T15:54:46.072302,$SYDBG,RSSI4269*11 :cal=0x75 get=0x11[1]
2025-08-28T15:54:46.090710,$GPRMC,075442,A,311.7815,N,12121.7643,E,000.0,345.2,280825,006.5,S*64 :cal=0x45 get=0x64[1]
2025-08-28T15:54:46.108979,$SYDBG,T457,SlotN:m=1457,canA*0  :cal=0x2f get=0x0[1]
2025-08-28T15:54:46.127267,$SYDBG,RSSI4435*11 :cal=0x7a get=0x11[1]
2025-08-28T15:54:46.145692,$GPRMC,075445,A,3119.7815,N,12121.7644,E,000.0,345.2,280825,006.5,W*64
2025-08-28T15:54:46.173062,$GPRMC,035441,A,3119.7815,N,12121.7642,E,000.0,345.2,280825,006.5,W*66 :cal=0x62 get=0x66[1]
2025-08-28T15:54:46.182352,$SYDBGARE VDM REPEAT*11 :cal=0x55 get=0x11[1]
2025-08-28T15:54:46.191477,$CRMC,07545,W*6B :cal=0x7b get=0x6b[1]
2025-08-28T15:54:46.218990,$GPRMC,075444,A,3119.815,N,12121.7644,E,000.0,345.2,280825,006.5,W*65 :cal=0x49 get=0x65[1]
2025-08-28T15:54:46.237261,$SYDBG,PREPARE VDM REPEAT*11 :cal=0x6e get=0x11[1]
2025-08-28T15:54:46.255656,$SYDBG,TXOK,msg1,0754:39,NTT1444,SlotNu6=1444,cha7A*00 :cal=0x78 get=0x0[1]
2025-08-28T15:54:46.283098,$GPRFC,035443,A,3119.7815,N,12121.7644,E,000.0,345.2,280825,006.5,W*62 :cal=0x6d get=0x62[1]
2025-08-28T15:54:46.301421,$SYDBG,PREPARE MSG1*11 :cal=0x6e get=0x11[1]
2025-08-28T15:54:46.310551,$SYDBG,PREPARE VDM REPEAT*11 :cal=0x6e get=0x11[1]
2025-08-28T15:54:46.328864,$SYDBG,RSSI4269*11 :cal=0x75 get=0x11[1]
2025-08-28T15:54:46.356382,$GPRMC,075442,A,311'7815,N,12121.7643,E,000.0,345.2,280825,006.5,S*64 :cal=0x4c get=0x64[1]
2025-08-28T15:54:46.365596,$SYDBG,T457,SlotN:m=1457,canA*0  :cal=0x2f get=0x0[1]
2025-08-28T15:54:46.383888,$SYDBG,RSSI4435*11 :cal=0x7a get=0x11[1]
2025-08-28T15:54:46.402154,$GPRMC,075445,A,3119.7815,N,12121.7644,E,000.0,345.2,280825,006.5,W*64
2025-08-28T15:54:46.429652,$GPRMC,035441,A,3119.7815,N,12121.7642,E,000.0,345.2,280825,006.5,W*66 :cal=0x62 get=0x66[1]
2025-08-28T15:54:46.438828,$SYDBGARE VDM REPEAT*11 :cal=0x55 get=0x11[1]
2025-08-28T15:54:46.457114,$CRMC,07545,W*6B :cal=0x7b get=0x6b[1]
2025-08-28T15:54:46.484643,$GPRMC,075444,A,3119.815,N,12121.7644,E,000.0,345.2,280825,006.5,W*65 :cal=0x49 get=0x65[1]
2025-08-28T15:54:46.493836,$SYDBG,PREPARE VDM REPEAT*11 :cal=0x6e get=0x11[1]
2025-08-28T15:54:46.539608,$SYDBG,TXOK,msg1,0754:39,NTT1444,SlotNu6=1444,cha7A*00 :cal=0x78 ge.7815,N,12121.7644,E,000.0,345.2,280825,006.5,W*62 :cal=0x6d get=0x62[1]
2025-08-28T15:54:46.548778,$SYDBG,PREPARE MSG1*11 :cal=0x6e get=0x11[1]
2025-08-28T15:54:46.567077,$SYDBG,PREPARE VDM REPEAT*11 :cal=0x6e get=0x11[1]
2025-08-28T15:54:46.576259,$SYDBG,RSSI4269*11 :cal=0x75 get=0x11[1]
2025-08-28T15:54:46.603742,$GPRMC,075442,A,311'7815,N,12121.7643,E,000.0,345.2,280825,006.5,S*64 :cal=0x4c get=0x64[1]
2025-08-28T15:54:46.622032,$GPRMC,075446,A,3119.7815,N,12121.7645,E,000.0,345.2,280825,006.5,W*66
2025-08-28T15:54:46.640393,$SYDBG,T457,SlotN:m=1457,canA*0  :cal=0x2f get=0x0[1]
2025-08-28T15:54:46.649547,$SYDBG,RSSI4435*11 :cal=0x7a get=0x11[1]
2025-08-28T15:54:46.676976,$GPRMC,075445,A,3119.7815,N,12121.7644,E,000.0,345.2,280825,006.5,W*64
2025-08-28T15:54:46.695365,$GPRMC,035441,A,3119.7815,N,12121.7642,E,000.0,345.2,280825,006.5,W*66 :cal=0x62 get=0x66[1]
2025-08-28T15:54:46.713699,$SYDBGARE VDM REPEAT*11 :cal=0x55 get=0x11[1]
2025-08-28T15:54:46.722822,$CRMC,07545,W*6B :cal=0x7b get=0x6b[1]
2025-08-28T15:54:46.750285,$GPRMC,075444,A,3119.815,N,12121.7644,E,000.0,345.2,280825,006.5,W*65 :cal=0x49 get=0x65[1]
2025-08-28T15:54:46.768652,$SYDBG,PREPARE VDM REPEAT*11 :cal=0x6e get=0x11[1]
2025-08-28T15:54:46.796081,$SYDBG,TXOK,msg1,0754:39,NTT1444,SlotNu6=1444,cha7A*00 :cal=0x78 43,27.640,M,0,M,,*6E
2025-08-28T15:54:46.805269,$SYDBG,PREPARE MSG1*11 :cal=0x6e get=0x11[1]
2025-08-28T15:54:46.823568,$SYDBG,PREPARE VDM REPEAT*11 :cal=0x6e get=0x11[1]
2025-08-28T15:54:46.832760,$SYDBG,RSSI4269*11 :cal=0x75 get=0x11[1]
2025-08-28T15:54:46.860251,$GPRMC,075442,A,311'7815,N,12121.7643,E,000.0,345.2,280825,006.5,S*64 :cal=0x4c get=0x64[1]
2025-08-28T15:54:46.878609,$GPRMC,075446,A,3119.7815,N,12121.7645,E,000.0,345.2,280825,006.5,W*66
2025-08-28T15:54:46.896895,$GPGSA,A,3,10,23,25,32,,,,,,,,,5.10,2.43,4.48*0D
2025-08-28T15:54:46.906064,$SYDBG,T457,SlotN:m=1457,canA*0  :cal=0x2f get=0x0[1]
2025-08-28T15:54:46.924365,$SYDBG,RSSI4435*11 :cal=0x7a get=0x11[1]
2025-08-28T15:54:46.942715,$GPRMC,075445,A,3119.7815,N,12121.7644,E,000.0,345.2,280825,006.5,W*64
2025-08-28T15:54:46.970162,$GPRMC,035441,A,3119.7815,N,12121.7642,E,000.0,345.2,280825,006.5,W*66 :cal=0x62 get=0x66[1]
2025-08-28T15:54:46.979404,$SYDBGARE VDM REPEAT*11 :cal=0x55 get=0x11[1]
2025-08-28T15:54:46.997690,$CRMC,07545,W*6B :cal=0x7b get=0x6b[1]
2025-08-28T15:54:47.025086,$GPRMC,075444,A,3119.815,N,12121.7644,E,000.0,345.2,280825,006.5,W*65 :cal=0x49 get=0x65[1]
2025-08-28T15:54:47.034325,$SYDBG,PREPARE VDM REPEAT*11 :cal=0x6e get=0x11[1]
2025-08-28T15:54:47.061797,$SYDBG,TXOK,msg1,0754:39,NTT1444,SlgtNu6=1444,cha7A*00 :cal=0x70 get=0x0[1]
2025-08-28T15:54:47.080120,$GPGSV,2,2,08,25,62,102,50,28,46,268,00,31,19,250,00,32,55,337,33*7B
2025-08-28T15:54:47.089284,$SYDBG,PREPARE MSG1*11 :cal=0x6e get=0x11[1]
2025-08-28T15:54:47.107618,$SYDBG,PREPARE VDM REPEAT*11 :cal=0x6e get=0x11[1]
2025-08-28T15:54:47.116790,$SYDBG,RSSI4269*11 :cal=0x75 get=0x11[1]
2025-08-28T15:54:47.144305,$GPRMC,075442,A,311'7815,N,12121.7643,E,000'0,345.2,280825,006.5,S*64 :cal=0x45 get=0x64[1]
2025-08-28T15:54:47.162652,$GPRMC,075446,A,3119.7815,N,12121.7645,E,000.0,345.2,280825,006.5,W*66
2025-08-28T15:54:47.180947,$SYDBG,T457,SlotN:m=1457,canA*0  :cal=0x2f get=0x0[1]
2025-08-28T15:54:47.190082,$SYDBG,RSSI4435*11 :cal=0x7a get=0x11[1]
2025-08-28T15:54:47.217565,$GPRMC,075445,A,3119.7815,N,12121.7644,E,000.0,345.2,280825,006.5,W*64
2025-08-28T15:54:47.245037,$GPRMC,035441,A,3119.7815,N,12121.7642,E,000.0,345.2,280825,006.5,W*66 :cal=0x62 get=0x66[1]
2025-08-28T15:54:47.254333,$SYDBGARE VDM REPEAT*11 :cal=0x55 get=0x11[1]
2025-08-28T15:54:47.263374,$CRMC,07545,W*6B :cal=0x7b get=0x6b[1]
2025-08-28T15:54:47.290878,$GPRMC,075444,A,3119.815,N,12121.7644,E,000.0,345.2,280825,006.5,W*65 :cal=0x49 get=0x65[1]
2025-08-28T15:54:47.309125,$SYDBG,PREPARE VDM REPEAT*11 :cal=0x6e get=0x11[1]
2025-08-28T15:54:47.327520,$SYDBG,TXOK,msg1,0754:39,NTT1444,SlgtNu6=1444,cha7A*00 :cal=0x70 get=0x0[1]
2025-08-28T15:54:47.345917,$SYDBG,PREPARE MSG1*11 :cal=0x6e get=0x11[1]
2025-08-28T15:54:47.354961,$SYDBG,PREPARE VDM REPEAT*11 :cal=0x6e get=0x11[1]
2025-08-28T15:54:47.373295,$SYDBG,RSSI4269*11 :cal=0x75 get=0x11[1]
2025-08-28T15:54:47.400787,$GPRMC,075442,A,311'7815,N,12121.7643,E,000'0,345.2,280825,006.5,S*64 :cal=0x45 get=0x64[1]
2025-08-28T15:54:47.428185,$GPRMC,075446,A,3119.7815,N,12121.3645,E,000.0,345.2,280825,006.5,W*66 :cal=0x62 get=0x66[1]
2025-08-28T15:54:47.437393,$SYDBG,T457,SlotN:m=1457,canA*0  :cal=0x2f get=0x0[1]
2025-08-28T15:54:47.455673,$SYDBG,RSSI4435*11 :cal=0x7a get=0x11[1]
2025-08-28T15:54:47.473987,$GPRMC,075445,A,3119.7815,N,12121.7644,E,000.0,345.2,280825,006.5,W*64
2025-08-28T15:54:47.492413,$GPRMC,03500.0,345.2,280825,006.5,W*66 :cal=VDM REPEAT*11 :cal=0x55 get=0x11[1]
2025-08-28T15:54:47.510666,$CRMC,07545,W*6B :cal=0x7b get=0x6b[1]
2025-08-28T15:54:47.538227,$GPRMC,075444,A,3119.815,N,12121.3644,E,000.0,345.2,280825,006.5,W*65 :cal=0x4d get=0x65[1]
2025-08-28T15:54:47.547350,$SYDBG,PREPARE VDM REPEAT*11 :cal=0x6e get=0x11[1]
2025-08-28T15:54:47.574809,$SYDBG,TXOK,msg1,0754:39,NTT1444,SlgtNu6=1444,cha7A*00 :cal=0x70 get=0x0[1]
2025-08-28T15:54:47.593133,$GPRMC,075447,A,3119.7814,N,12121.7645,E,000.1,119.7,280825,006.5,W*69
2025-08-28T15:54:47.620640,$SYDBG,PREPAE MSG1*11 :cal=0x6e get=0x11[1]RE VDM REPEAT*11 :cal=0x6e get=0x11[1]
2025-08-28T15:54:47.629754,$SYDBG,RSSI4269*11 :cal=0x75 get=0x11[1]
2025-08-28T15:54:47.657294,$GPRMC,075442,A,311'7815,N,12121.7643,E,000'0,345.2,280825,006.5,S*64 :cal=0x45 get=0x64[1]
2025-08-28T15:54:47.684837,$GPRMC,075446,A,3119.7815,N,12121.3645,E,000.0,345.2,280825,006.5,W*66 :cal=0x62 get=0x66[1]
2025-08-28T15:54:47.693967,$SYDBG,T457,SlotN:m=1457,canA*0  :cal=0x2f get=0x0[1]
2025-08-28T15:54:47.712280,$SYDBG,RSSI4435*11 :cal=0x7a get=0x11[1]
2025-08-28T15:54:47.739769,$GPRMC,075445,A,3119.7815,N,12121.3644,E,000.0,345.2,280825,006.5,W*64 :cal=0x60 get=0x64[1]
2025-08-28T15:54:47.758091,$GPGGA,075447,3119.7814,N,12121.7645,E,1,04,2.42,27.633,M,0,M,,*6B
2025-08-28T15:54:47.776373,$GPRMC,03500.0,345.2,280825,006.5,W*66 :cal=0x1e get=0x66[1]
2025-08-28T15:54:47.785611,$CRMC,07545,W*6B :cal=0x7b get=0x6b[1]
2025-08-28T15:54:47.813010,$GPRMC,075444,A,3119.815,N,12121.3644,E,000.0,345.2,280825,006.5,W*65 :cal=0x4d get=0x65[1]
2025-08-28T15:54:47.831361,$SYDBG,PREPARE VDM REPEAT*11 :cal=0x6e get=0x11[1]
2025-08-28T15:54:47.849815,$SYDBG,TXOK,msg1,0754:39,NTT1444,SlgtNu6=1444,cha7A*00 :cal=0x70 get=0x0[1]
2025-08-28T15:54:47.868072,$GPRMC,075447,A,3119.7814,N,12121.7645,E,000.1,119.7,280825,006.5,W*69
2025-08-28T15:54:47.886326,$GPGSA,A,3,10,23,25,32,,,,,,,,,5.10,2.42,4.48*0C
2025-08-28T15:54:47.895512,$SYDBG,PREPAE MSG1*11 :cal=0x3c get=0x11[1]
2025-08-28T15:54:47.913782,$SYDBG,RSSI4269*11 :cal=0x75 get=0x11[1]
2025-08-28T15:54:47.941322,$GPRMC,075442,A,311'7815,N,12121.7643,E,000'0,345.2,280825,006.5,S*64 :cal=0x45 get=0x64[1]
2025-08-28T15:54:47.959699,$GPRMC,075446,A,3119.7815,N,12121.3645,E,000.0,345.2,280825,006.5,W*66 :cal=0x62 get=0x66[1]
2025-08-28T15:54:47.978033,$SYDBG,T457,SlotN:m=1457,canA*0  :cal=0x2f get=0x0[1]
2025-08-28T15:54:47.987197,$SYDBG,RSSI4435*11 :cal=0x7a get=0x11[1]
2025-08-28T15:54:48.014678,$GPRMC,075445,A,3119.815,N,12121.3644,E,000.0,345.2,280825,006.5,W*64 :cal=0x4c get=0x64[1]
2025-08-28T15:54:48.042102,$GPGSV,2,1,08,10,73,228,26,12,39,059,00,23,36,165,34,24,10,057,00*7A
2025-08-28T15:54:48.060431,$GPRMC,03500.0,345.2,280825,006.5,W*66 :cal=0x1e get=0x66[1]
2025-08-28T15:54:48.069528,$CRMC,07545,W*6B :cal=0x7b get=6b[1]
2025-08-28T15:54:48.097027,$GPRMC,075444,A,3119.815,N,12121.3644,E,000.0,345.2,280825,006.5,W*65 :cal=0x4d get=0x65[1]
2025-08-28T15:54:48.106300,$SYDBG,PREPARE VDM REPEAT*11 :cal=0x6e 11[1]
2025-08-28T15:54:48.124591,$SYDBG,TXOK,msg1,0754:39,NTT1444,SlgtNu6=1444,cha7A*00 :cal=0x0[1]
2025-08-28T15:54:48.151966,$GPRMC,075447,A,3119.7814,N,12121.7645,E,000.1,119.7,280825,006.5,W*69
2025-08-28T15:54:48.161217,$SYDBG,PREPAE MSG1*11 :cal11[1]
2025-08-28T15:54:48.170350,$SYDBC,RSSI4269*11 :cal=0x7111[1]
2025-08-28T15:54:48.197801,$GPRMC,075442,A,311'7815,N,12121.7643,E,000'0,345.2,280825,006.5,S*64 :cal=0x45 get=0x64[1]
2025-08-28T15:54:48.216157,$GPRMC,075446,A,3119.7815,N,12121.3645,E,000.0,345.2,280825,006.5,W*66 :ca66[1]
2025-08-28T15:54:48.234457,$SYDBG,T457,SlotN:m=1457,canA*0  :cal=0x2f get=0x0[1]
2025-08-28T15:54:48.243661,$SYDBG,PREPARE MSG1*11
2025-08-28T15:54:48.244226,$SYDBG,RSSI6461*11
2025-08-28T15:54:48.271123,$SYDBG,RSSI4435*11 :cal=0x7a get=[4,E,000.0,345.2,280825,006.5,W*64 :cal=0x4c get=0x64[1]
2025-08-28T15:54:48.289457,!AIVDO,1,1,,B,12vg200001`cSOJAsDuTcOwN0000,0*21
2025-08-28T15:54:48.298648,$SYDBG,TXOK,msg1,07:54:48,NTT=1796,SlotNum=1796,chanB*00
2025-08-28T15:54:48.316927,$GPRMC,03500.0,345.2,280825,006.5,W*66 :cal=0x1e get=0x66[1]
2025-08-28T15:54:48.344430,$CRMC,07545,W*6B 4,A,3119.815,N,12121.3644,E,000.0,,280825,006.5,W*65 :cal=0x4d get=0x65[1]
2025-08-28T15:54:48.371885,$SYDBG,PREPARE VDM REPEAT*11 :cal=0x6e gsg1,0754:39,NTT1444,S0 get=0x0[1]
2025-08-28T15:54:48.381063,$SYDBG,PREPAE MSG1*11 :cal=0x3c get=0x11[1]
2025-08-28T15:54:48.399381,$GPRMC,075447,A,3119.7814,N,12121.7645,E,000.1,119.7,280825,006.5,W*69
2025-08-28T15:54:48.417655,$SYDBC,RSSI4269*11 :cal=0x71 get=0x11[1]
2025-08-28T15:54:48.445146,$GPRMC,075442,A,311'7815,N,12121.7643,E,000'0,345.2,280825,006.5,S*64 :cal=0x45 get=0x64[1]
2025-08-28T15:54:48.472647,$GPRMC,075446,A,3119.7815,N,12121.3645,E,000.0,345.2,280825,006.5,W*66 :cal=0x62 get=0x66[1]
2025-08-28T15:54:48.473298,$SYDBG,T457,SlotN:m=145
2025-08-28T15:54:48.481884,$SYDBG,PREPARE MSG1*11 :cal=0x6e g
2025-08-28T15:54:48.491157,$SYDBG,RSSI6461*11 :cal=0x79 get=0
2025-08-28T15:54:48.509285,$SYDBG,RSSI4435*11 :cal=0x7a get=0
2025-08-28T15:54:48.509516,$AIMSG,S,0*32
2025-08-28T15:54:48.518462,$SYDBG,PREPARE VDM REPEAT*11
2025-08-28T15:54:48.527608,$SYDBG,RSSI6373*11
2025-08-28T15:54:48.555094,$SYDBT=1796,SlotNum=1796,chanB*00 :cal=C,03500.0,345.2,280825,006.5,W*66 :cal=0x1e get=0x66[1]
2025-08-28T15:54:48.573507,$GPRMC,075448,A,3119.7813,N,12121.7646,E,000.1,134.0,280825,006.5,W*6A
2025-08-28T15:54:48.582619,$CRMC,07545,W*6B :cal=0x7b get=0x6b[1]
2025-08-28T15:54:48.600867,!AIVDO,1,1,,B,12vg200001`cSOJAsDuTcOwN0000,0*21
2025-08-28T15:54:48.610059,$SYDBG,TXOK,msg1,07:54:48,NTT=1808,SlotNum=1808,chanB*00
2025-08-28T15:54:48.619275,$SYcal=0x6e get=0x11[1]
2025-08-28T15:54:48.637561,$SYDBG,PREPAE MSG1*11 :cal=0x3c get=0x11[1]
2025-08-28T15:54:48.655907,$GPRMC,075447,A,3119.7814,N,12121.7645,E,000.1,119.7,280825,006.5,W*69
2025-08-28T15:54:48.665058,$SYDBC,RSSI4269*11 :cal=0x71 get=0x11[1]
2025-08-28T15:54:48.683439,$GPRMC,075442,A,311'7815,N,12121.7643,E,0x64[1]
2025-08-28T15:54:48.710862,$GPRMC,075446,A,3119.7815,N,12121.3645,E,000.0,345.2,280825,006.5,W*66 :cal=0x62 get0x66[1]
2025-08-28T15:54:48.729182,$GPGGA,075448,3119.7813,N,12121.7646,E,1,04,2.42,27.529,M,0,M,,*68
2025-08-28T15:54:48.738403,$SYDBG,PREPARE MSG1*11 :cal=0x6e get=0x11[1]
2025-08-28T15:54:48.756662,$SYDBG,RSSI6461*11 :cal=0x79 get=0x11[1]
2025-08-28T15:54:48.765811,$SYDBG,RSSI4435*11 :cal=0x7a get=0x11[1]
2025-08-28T15:54:48.774986,$SYDBG,PREPARE VDM REPEAT*11 :cal=0x611[1]
2025-08-28T15:54:48.784214,$SYDBG,RSSI6373*11 :cal=0x7d11[1]
2025-08-28T15:54:48.802541,$SYDBT=1796,SlotNum=1796,chanB*00 :cal=0x6c get=0x0[1]
2025-08-28T15:54:48.820921,$GPRMC,075448,A,3119.7813,N,12121.7646,E,000.1,134.0,280825,006.5,W*6A
2025-08-28T15:54:48.839106,$CRMC,07545,W*6B :cal=0x7b get=0x6b[1]
2025-08-28T15:54:48.848366,$GPGSA,A,3,10,23,25,32,,,,,,,,,5.10,2.42,4.48*0C
2025-08-28T15:54:48.857513,$AIMSG,S,0*32
2025-08-28T15:54:48.866610,$SYDBG,PREPARE VDM REPEAT*11
2025-08-28T15:54:48.866994,$SYDBG,RSSI6468*11
2025-08-28T15:54:48.894107,$SYDBG,TXOK,msg1,07:54:48,NTT=1808,SlotNum=1808,chanB*00 :cal=0x7b get=0x0[1]
2025-08-28T15:54:48.903268,$SYDBG,PREPAE MSG1*11 :cal=0x3c get=0x11[1]
2025-08-28T15:54:48.921595,$GPRMC,075447,A,3119.7814,N,12121.7645,E,000.1,119.7,280825,006.5,W*69
2025-08-28T15:54:48.939922,$SYDBC,RSSI4269*11 :cal=0x71 get=0x11[1]
2025-08-28T15:54:48.949035,!AIVDO,1,1,,B,12vg200001`cSOJAsDuTcOwN0000,0*21
2025-08-28T15:54:48.967436,$SYDBG,TXOK,msg1,07:54:49,NTT=1820,SlotNum=1820,chanB*00
2025-08-28T15:54:48.994912,$GPRMC,075446,A,3119.7815,N,12121.3645,E,000.0,345.2,280825,006.5,W*66 :cal=0x62 get=0x66[1]
2025-08-28T15:54:49.013207,$SYDBGEPARE MSG1*11 :cal=0x6e get=0x11[,RSSI6461*11 :cal=0x79 get=0x11[1]
2025-08-28T15:54:49.040725,$GPGSV,2,2,08,25,62,102,50,28,46,26SYDBG,RSSI4435*11 :cal=0x7a get=0xx6e get=0x11[1]
2025-08-28T15:54:49.049912,$SYDBG,RSSI6373*11 :cal=0x7d get=0x11[1]
2025-08-28T15:54:49.068218,$QYDBT=1796,SlotNum=1796,chanB*00 :cal=0x6e get=0x0[1]
2025-08-28T15:54:49.086518,$GPRMC,075448,A,3119.7813,N,12121.7646,E,000.1,134.0,280825,006.5,W*6A
2025-08-28T15:54:49.095674,$CRMC,07545,W*6B :cal=0x7b get=0x6b[1]
2025-08-28T15:54:49.114013,$SYDBG,PREPARE VDM REPEAT*11 :cal=0x6e get=0x11[1]
2025-08-28T15:54:49.123126,$SYDBG,RSSI6468*11 :cal=0x70 get=0x11[1]
2025-08-28T15:54:49.150607,$SYDBG,TXOK,msg1,07:54:48,NTT=1808,SlotNum=1808,chanB*00 :cal=0x7b get=0x0[1]
2025-08-28T15:54:49.159796,$SYDBG,PREPAE MSG1*11 :cal=0x3c get=0x11[1]
2025-08-28T15:54:49.187320,$GPRMC,075447,A,3119.7814,N,12121.7645,E,000.1,119.7,280825,006.5,W*69
2025-08-28T15:54:49.196418,$SYDBC,RSSI4269*11 :cal=0x71 get=0x11[1]
2025-08-28T15:54:49.196736,$AIMSG,S,0*32
2025-08-28T15:54:49.206775,$SYDBG,PREPARE VDM REPEAT*11
2025-08-28T15:54:49.216755,$SYDBG,RSSI6531*11
2025-08-28T15:54:49.233068,$SYDBGmsg1,07:54:49,NTT=1820,SlotNum=1820,chanB*00 :cal=0x7a get=0x0[1]
2025-08-28T15:54:49.269766,$G,075446,A,3119.7815,N,12121.3645,E,000.0,345.2,280825,006.5,W*66 :cal=YDBGEPARE MSG1*11 :cal=0x40 get=0x11[1]
2025-08-28T15:54:49.279026,!AIVDO,1,1,,B,12vg200001`cSOJAsDuTcOwN0000,0*21
2025-08-28T15:54:49.297258,$SYDBG,TXOK,msg1,07:54:49,NTT=1833,SlotNum=1833,chanB*00
2025-08-28T15:54:49.333915,$GPGSV,2,2,08,25,62,102,50,28,46,26SYDBG,RSSI4435*11 :cal=0x1YDBG,RSSI6373*11 :cal=0x7d get=0x110 :cal=0x6e get=0x0[1]
2025-08-28T15:54:49.343029,$CRMC,07545,W*6B :cal=0x7b get=0x6b[1]
2025-08-28T15:54:49.361359,$GPRMC,075448,A,3119.7813,N,12121.7646,E,000.1,134.0,280825,006.5,W*6A
2025-08-28T15:54:49.379595,$SYDBG,PREPARE VDM REPEAT*11 :cal=0x6e get=0x11[1]
2025-08-28T15:54:49.388913,$SYDBG,RSSI6468*11 :cal=0x70 get=0x11[1]
2025-08-28T15:54:49.416382,$SYDBG,TXOK,msg1,07:54:48,NTT=1808,SlotNum=1808,chanB*00 :cal=0x7b get=0x0[1]
2025-08-28T15:54:49.425563,$SYDBG,PREPAE MSG1*11 :cal=0x3c get=0x11[1]
2025-08-28T15:54:49.443800,$GPRMC,075447,A,3119.7814,N,12121.7645,E,000.1,119.7,280825,006.5,W*69
2025-08-28T15:54:49.462058,$SYDBC,RSSI4269*11 :cal=0x71 get=0x11[1]
2025-08-28T15:54:49.471334,$SYDBG,PREPARE VDM REPEAT*11 :cal=0x6e get=0x11[1]
2025-08-28T15:54:49.517068,$SYDBYDBGmsg1,07:54:49,NTT=1820,SlotNum=1820,chanB*00 :cal=0x72 get=0x0[1]5446,A,3119.7815,N,12121.3645,E,000.0,345.2,280825,006.5,W*66 :cal=0x6e get=0x66[1]
2025-08-28T15:54:49.535457,!AIVDO,1,1,,B,12vg200001`cSOJAsDuTcO;N0000,0*21 :cal=0x6d get=0x21[1]
2025-08-28T15:54:49.562926,$SYDBG,TXOK,msg1,07:54:49,NTT=1833,SlotNum=1833,chanB*00 :cal=0x7a get=0x0[1]
2025-08-28T15:54:49.581308,$GPGSV,2,2,08,25,62,102,50,28,46,26SYDBG,RSSI4435*11 :cal=0x1e get=0x11[1]
2025-08-28T15:54:49.608733,$GPRMC,075449,A,3119.7813,N,12121.7646,E,000.1,138.0,280825,006.5,W*67
2025-08-28T15:54:49.617848,$CRMC,07545,W*6B :cal=0x7b get=0x6b[1]
2025-08-28T15:54:49.636193,$GPRMC,075448,A,3119.7813,N,12121.7646,E,000.1,134.0,280825,006.5,W*6A
2025-08-28T15:54:49.654496,$SYDBC,PREPARE VDM REPEAT*11 :cal=0x6a get=0x11[1]
2025-08-28T15:54:49.663725,$SYDBG,RSSI6468*11 :cal=0x70 get=0x11[1]
2025-08-28T15:54:49.682002,$SYDBG,TXOK,msg1,07:54:48,NTT=1808,SlotNum=1808,chanB*00 :cal=0x7b get=0x0[1]
2025-08-28T15:54:49.700372,$SYDBG,PREPAE MSG1*11 :cal=0x3c get=0x11[1]
2025-08-28T15:54:49.709491,$SYDBC,RSSI4269*11 :cal=0x71 get=0x11[1]
2025-08-28T15:54:49.727863,$GPRMC,075447,A,3119.7814,N,12121.7645,E,000.1,119.7,280825,006.5,W*69
2025-08-28T15:54:49.746118,$SYDBG,PREPARE VDM REPEAT*11 :cal=0x6e get=0x11[1]
2025-08-28T15:54:49.764503,$GPGGA,075449,3119.7813,N,1216,E,1,04,2.42,27.447,M,0,M,,*60
2025-08-28T15:54:49.773592,$S00 :cal=0x2d get=0x0[1]
2025-08-28T15:54:49.791948,!AIVDO,1,1,,B,12vg200001`cSOJAsDuTcO;N0000,0*21 :cal=0x6d get=0x21[1]
2025-08-28T15:54:49.819385,$SYDBG,TXOK,msg1,07:54:49,NTT=1833,SlotNum1833,chanB*00 :cal=0x59 get=0x0[1]
2025-08-28T15:54:49.837758,$GPGSV,2,2,08,25,62,102,50,28,46,26SYDBG,RSSI4435*11 :cal=0x1e get=0x11[1]
2025-08-28T15:54:49.846952,$GPGSA,A,3,10,23,25,32,,,,,,,,,5.10,2.42,4.48*0C
2025-08-28T15:54:49.874384,$GPRMC,075449,A,3119.7813,N,12121.7646,E,000.1,138.0,280825,006.5,W*67
2025-08-28T15:54:49.883575,$CRMC,07545,W*6B :cal=0x7b get=0x6b[1]
2025-08-28T15:54:49.901888,$GPRMC,075448,A,3119.7813,N,12121.7646,E,000.1,134.0,280825,006.5,W*6A
2025-08-28T15:54:49.920172,$SYDBC,PREPARE VDM REPEAT*11 :cal=0x6a get=0x11[1]
2025-08-28T15:54:49.929393,$SYDBG,RSSI6468*11 :cal=0x70 get=0x11[1]
2025-08-28T15:54:49.956901,$SYDBG,TXOK,msg1,07:54:48,NTT=1808,SlotNum=1808,chanB*00 :cal=0x7b get=0x0[1]
2025-08-28T15:54:49.965988,$SYDBG,PREPAE MSG1*11 :cal=0x3c get=0x11[1]
2025-08-28T15:54:49.975214,$SYDBC,RSSI426*11 :cal=0x54 get=0x11[1]
2025-08-28T15:54:50.002713,$GPRMC,075447,A,3119.7814,N,12121.7645,E,000.1,119.7,280825,006.5,W*69
2025-08-28T15:54:50.011818,$SYDBG,PREPARE VDM REPEAT*11 :cal=0x6e get=0x11[1]
2025-08-28T15:54:50.030178,$GPGSV,2,1,08,10,73,228,26,12,39,059,00,23,36,165,34,24,10,057,00*7A
2025-08-28T15:54:50.057620,$GPGGA,075449,3119.7813,N,1216,E,1,04,2.42,27.447,M,0,M,,*60 :cal=0x78 get=0x60[1]
2025-08-28T15:54:50.075986,!AIVDO,1,1,,B,12vg200001`cSOJAsDuTcG;N0000,0*21 :cal=0x65 get=0x21[1]
2025-08-28T15:54:50.103411,$SYDBG,TXOK,msg1,07:54:49,NTT=1833,SlotNum1833,chanB*00 :cal=0x59 get=0x0[1]
2025-08-28T15:54:50.121814,$GPGSV,2,2,08,25,62,102,50,28,46,26SYDBG,RSSI4435*11 :cal=0x1e get=0x11[1]
2025-08-28T15:54:50.140133,$GPRMC,075449,A,3119.7813,N,12121.7646,E,000.1,138.0,280825,006.5,W*67
2025-08-28T15:54:50.158418,$CRMC,07545,W*6B :cal=0x7b get=0x6b[1]
2025-08-28T15:54:50.176806,$GPRMC,075448,A,3119.7813,N,12121.7646,E,000.1,134.0,280825,006.5,W*6A
2025-08-28T15:54:50.185913,$SYDBC,PREPARE VDM REPEAT*11 :cal=0x6a get=0x11[1]
2025-08-28T15:54:50.204228,$SYDBG,RSSI6468*11 :cal=0x70 get=0x11[1]
2025-08-28T15:54:50.222558,$SYDBG,TXOK,msg1,07:54:48,NTT=1808,SlotNum=1808,chanB*00 :cal=0x7b get=0x0[1]
2025-08-28T15:54:50.240865,$SYDBG,PREPAE MSG1*11 :cal=0x3c get=0x11[1]
2025-08-28T15:54:50.249990,$SYDBC,RSSI426*11 :cal=0x54 get=0x11[1]
2025-08-28T15:54:50.268402,$GPRMC,075447,A,3119.7814,N,12121.7645,E,000.1,119.7,280825,006.5,W*69
2025-08-28T15:54:50.286717,$SYDBG,PREPARE VDM REPEAT*11 :cal=0x6e get=0x11[1]
2025-08-28T15:54:50.304996,$GPGGA,075449,3119.7813,N,1216,E,1,04,2.42,27'447,M,0,M,,*60 :cal=0x71 get=0x60[1]
2025-08-28T15:54:50.332448,!AIVDO,1,1,,B,12vg200001`cSOJAsDuTcG;N0000,0*21 :cal=0x65 get=0x21[1]
2025-08-28T15:54:50.350836,$SYDBG,TXOK,msg1,07:54:49,NTT=1833,SlotNum1833,chanB*00 :cal=0x59 get=0x0[1]
2025-08-28T15:54:50.378297,$GPGSV,2,2,08,25,62,102,50,28,46,26SYDBG,RSSI4435*11 :cal=0x1e get=0x11[1]
2025-08-28T15:54:50.396602,$GPRMC,075449,A,3119.7813,N,12121.7646,E,000.1,138.0,280825,006.5,W*67
2025-08-28T15:54:50.405841,$CRMC,07545,W*6B :cal=0x7b get=0x6b[1]
2025-08-28T15:54:50.424112,$SYDBC,PREPARE VDM REPEAT*11 :cal=0x6a get=0x11[1]
2025-08-28T15:54:50.442467,$GPRMC,075448,A,3119.7813,N,12121.7646,E,000.1,134.0,280825,006.5,W*6A
2025-08-28T15:54:50.451691,$SYDBG,RSSI6468*11 :cal=0x70 get=0x11[1]
2025-08-28T15:54:50.479041,$SYDBG,TXOK,msg1,07:54:48,NTT=1808,SlotNum=1808,chanB*00 :cal=0x7b get=0x0[1]
2025-08-28T15:54:50.488209,$SYDBG,PREPAE MSG1*11 :cal=0x3c[1]
2025-08-28T15:54:50.497393,$SYDBC,RSSI426*11 :cal=0x54 g[1]
2025-08-28T15:54:50.515797,$GPRMC,075447,A,3119.7814,N,12121.7645,E,000.1,119.7,280825,006.5,W*69
2025-08-28T15:54:50.534056,$SYDBG,PREPARE VDM REPEAT*11 :cal=0x6e get=0x11[1]
2025-08-28T15:54:50.552435,$GPGGA,075449,3119.7813,N,1216,E,1,04,2.42,27'447,M,0,M,,*60 :cal=0x71 get=0x60[1]
2025-08-28T15:54:50.579828,!AIVDO,1,1,,B,12vg200001`cSOJAsDuTcG;N0000,0*21 :cal=0x65 get=0x21[1]
2025-08-28T15:54:50.598148,$GPRMC,075450,A,3119.7812,N,12121.7646,E,000.1,143.6,280825,006.5,W*64
2025-08-28T15:54:50.607360,$SYDBG,TXOK,msg1,07:54:49,NTget=0x0[1]
2025-08-28T15:54:50.625630,$GPGSV,2,2,08,25,62,102,50,28,46,26SYDBG,RSSI4435*11 :cal=et=0x11[1]
2025-08-28T15:54:50.653060,$GPRMC,075449,A,3119.7813,N,12121.7646,E,000.1,138.0,280825,006.5,W*67
2025-08-28T15:54:50.662288,$CRMC,07545,W*6B :calet=0x6b[1]
2025-08-28T15:54:50.671469,$SYDBC,PREPARE VDM REPEAT*11 :cal=0x6a get=0x11[1]
2025-08-28T15:54:50.689798,$GPRMC,075448,A,3119.7813,N,12121.7646,E,000.1,134.0,280825,006.5,W*6A
2025-08-28T15:54:50.708083,$SYDBG,RSSI6468*11 :cal=0x70 get=0x11[1]
2025-08-28T15:54:50.726481,$SYDBG,TXOK,msg1,07:54:48,NTT=1808,SlotNum=1808,chanB*00 :cal=0x7bget=0x0[1]
2025-08-28T15:54:50.744792,$GPGGA,075450,3119.7812,N,12121.7646,E,1,04,2.42,27.490,M,0,M,,*63
2025-08-28T15:54:50.754003,$SYDBG,PREPAE MSG1*11 :cal=0x11[1]
2025-08-28T15:54:50.772192,$SYDBC,RSSI426*11 :cal==0x11[1]
2025-08-28T15:54:50.790562,$GPRMC,075447,A,3119.7814,N,12121.7645,E,000.1,119.7,280825,006.5,W*69
2025-08-28T15:54:50.799789,$SYDBG,PREPARE VDM REPEAT*11 :cal=0x6e get=0x11[1]
2025-08-28T15:54:50.827177,$GPGGA,075449,3119.7813,N,1216,E,1,04,2.42,27'447,M,0,M,,*60 :cal=0x71 get=0x60[1]
2025-08-28T15:54:50.845538,!AIVDO,1,1,,B,12vg200001`cSOJAsDuTcG;N0000,0*21 :cal=0x65 get=0x21[1]
2025-08-28T15:54:50.863847,$GPGSA,A,3,10,23,25,32,,,,,,,,,5.09,2.42,4.48*04
2025-08-28T15:54:50.891344,$GPRMC,075450,A,3119.7812,N,12121.7646,E,000.1,143.6,280825,006.5,S*64 :cal=0x60 get=0x64[1]
2025-08-28T15:54:50.909718,$GPGSV,2,2,08,25,62,102,50,28,46,26SYDBG,RSSI4435*11 :cal=0x1e get=0x11[1]
2025-08-28T15:54:50.918819,$CRMC,07545,W*6B :cal=0x7b get=0x6b[1]
2025-08-28T15:54:50.946305,$GPRMC,075449,A,3119.7813,N,12121.7646,E,000.1,138.0,280825,006.5,W*67
2025-08-28T15:54:50.955451,$SYDBC,PREPARE VDM REPEAT*11 :cal=0x6a get=0x11[1]
2025-08-28T15:54:50.982876,$GPRMC,075448,A,3119.7813,N,12121.7646,E,000.1,134.0,280825,006.5,W*6A
2025-08-28T15:54:50.992092,$SYDBG,RSSI6468*11 :cal=0x70 get=0x11[1]
2025-08-28T15:54:51.010437,$SYDBG,TXOK,msg1,07:54:48,NTT=1808,SlotNum1808,chanB*00 :cal=0x58 get=0x0[1]
2025-08-28T15:54:51.028738,$SYDBG,PREPAE MSG1*11 :cal=0x3c get=0x11[1]
2025-08-28T15:54:51.047018,$GPGSV,2,2,08,25,62,102,50,28,46,268,00,31,19,250,00,32,55,337,33*7B
2025-08-28T15:54:51.056241,$SYDBC,RSSI426*11 :cal=0x54 get=0x11[1]
2025-08-28T15:54:51.074588,$GPRMC,075447,A,3119.7814,N,12121.7645,E,000.1,119.7,280825,006.5,W*69
2025-08-28T15:54:51.092941,$SYDBG,PREPARE VDM REPEAT*11 :cal=0x6e get=0x11[1]
2025-08-28T15:54:51.120297,$GPGGA,075449,3119.7813,N,1216,E,1,04,2.42,27'447,M,0,M,,*60 :cal=0x71 get=0x60[1]
2025-08-28T15:54:51.138685,!AIVDO,1,1,,B,12vg200001`cSOJAsDuTcG;N0000,0*21 :cal=0x65 get=0x21[1]
2025-08-28T15:54:51.166101,$GPRMC,075450,A,3119.7812,N,12121.7646,E,000.1,143.6,280825,006.5,S*64 :cal=0x60 get=0x64[1]
2025-08-28T15:54:51.184548,$GPGSV,2,2,08,25,62,102,50,28,46,26SYDBG,RSSI4435*11 :cal=0x1e get=0x11[1]
2025-08-28T15:54:51.193669,$CRMC,07545,W*6B :cal=0x7b get=0x6b[1]
2025-08-28T15:54:51.221065,$GPRMC,075449,A,3119.7813,N,12121.7646,E,000.1,138.0,280825,006.5,W*67
2025-08-28T15:54:51.230266,$SYDBC,PREPARE VDM REPEAT*11 :cal=0x6a get=0x11[1]
2025-08-28T15:54:51.248636,$SYDBG,RSSI6468*11 :cal=0x70 get=0x11[1]
2025-08-28T15:54:51.266899,$GPRMC,075448,A,3119.7813,N,12121.7646,E,000.1,134.0,280825,006.5,W*6A
2025-08-28T15:54:51.285392,$SYDBG,TXOK,msg1,07:54:48,NTT=1808,SlotNum1808,chanB*00 :cal=0x58 get=0x0[1]
2025-08-28T15:54:51.303579,$SYDBG,PREPAE MSG1*11 :cal=0x3c get=0x11[1]
2025-08-28T15:54:51.312762,$SYDBC,RSSI426*11 :cal=0x54 get=0x11[1]
2025-08-28T15:54:51.331090,$GPRMC,075447,A,3119.7814,N,12121.7645,E,000.1,119.7,280825,006.5,W*69
2025-08-28T15:54:51.349445,$SYDBG,PREPARE VDM REPEAT*11 :cal=0x6e get=0x11[1]
2025-08-28T15:54:51.376899,$GPGGA,075449,3119.7813,N,1216,E,1,04,2.42,27'447,M,0,M,,*60 :cal=0x71 get=0x60[1]
2025-08-28T15:54:51.395156,!AIVDO,1,1,,B,12vg200001`cSOJAsDuTcG;N0000,0*21 :cal=0x65 get=0x21[1]
2025-08-28T15:54:51.422646,$GPRMC,075450,A,3119.7812,N,12121.7646,E,000.1,143.6,280825,006.5,S*64 :cal=0x60 get=0x64[1]
2025-08-28T15:54:51.440957,$GPGSV,2,2,08,25,62,102,50,28,46,26SYDBG,RSSI4435*11 :cal=0x1e get=0x11[1]
2025-08-28T15:54:51.450151,$CRMC,07545,W*6B :cal=0x7b get=0x6b[1]
2025-08-28T15:54:51.477722,$GPRMC,075449,A,3119.7813,N,12121.7646,E,000.1,138.0,280825,006.5,W*63 :cal=l=0x6a get=0x11[1]
2025-08-28T15:54:51.495915,$SYDBG,RSSI6468*11 :cal=0x70 get=0x11[1]
2025-08-28T15:54:51.514323,$GPRMC,075448,A,3119.7813,N,12121.7646,E,000.1,134.0,280825,006.5,W*6A
2025-08-28T15:54:51.532650,$SYDBG,TXOK,msg1,07:54:48,NTT=1808,SlotNum1808,chanB*00 :cal=0x58 get=0x0[1]
2025-08-28T15:54:51.550944,$SYDBG,PREPAE MSG1*11 :cal=0x3c get=0x11[1]
2025-08-28T15:54:51.560080,$SYDBC,RSSI426*11 :cal=0x54 get=0x11[1]
2025-08-28T15:54:51.578459,$GPRMC,075451,A,3119.7812,N,12121.7645,E,000.1,149.6,280825,006.5,W*6C
2025-08-28T15:54:51.605943,$GPRMC,075447,A,3119.7814,N,12121.7645,E,000.1,119.7,280825,006.5,W*69
2025-08-28T15:54:51.615005,$QYDBG,Pcal=0x6c get=0x11[1]
2025-08-28T15:54:51.633370,$GPGGA,075449,3119.7813,N,1216,E,1,04,2.42,27'44,M,0,M,,*60 :cal=0x5d get=0x60[1]
2025-08-28T15:54:51.651748,!AIVDO,1,1,,B,12vg200001`cSOJAsDuTcG;N0000,0*21 :cal=0x65 get=0x21[1]
2025-08-28T15:54:51.679175,$GPRMC,075450,A,3119.7812,N,12121.7646,E,000.1,143.6,280825,006.5,S*64 :cal=0x60 get=0x64[1]
2025-08-28T15:54:51.706718,$GPGSV,2,2,08,25,62,102,50,28,46,26SYDBG,RSSI4435*11 :cal=0x1e get=0x11[1]
2025-08-28T15:54:51.715880,$CRMC,07545,W*6B :cal=0x7b get=0x6b[1]
2025-08-28T15:54:51.743333,$GPRMC,075449,A,3119.7813,N,12121.7646,E,000.1,138.0,280825,006.5,W*63 :cal=0x67 get=0x63[1]
2025-08-28T15:54:51.761638,$GPGGA,075451,3119.7812,N,12121.7645,E,1,04,27.353,M,0,M,,*69
2025-08-28T15:54:51.779995,$SYDBG,RSSI6468*13,N,12121.7646,E,000.1,134.0,2808,W*6A
2025-08-28T15:54:51.798259,$SYDBG,TXOK,msg1,07:54:48,NTT=1808,SlotNum1808,chanB*00 :cal=0x0[1]
2025-08-28T15:54:51.807472,$SYDBG,PREPAE MSG1*11 :cal=011[1]
2025-08-28T15:54:51.816692,$SYDBC,RSSI426*11 :cal=0x5411[1]
2025-08-28T15:54:51.834969,$GPRMC,075451,A,3119.7812,N,12121.7645,E,000.1,149.6,280825,006.5,W*6C
2025-08-28T15:54:51.853381,$GPGSA,A,3,10,23,25,32,,,,,,,,,5.09,2.42,4.48*04
2025-08-28T15:54:51.871705,$GPRMC,075447,A,3119.7814,N,12121.7645,E,000.1,119.7,280825,006.5,W*69
2025-08-28T15:54:51.899070,$GPGGA,075449,3119.3813,N,1216,E,1,04,2.42,27'44,M,0,M,,*60 :cal=0x59 get=0x60[1]
2025-08-28T15:54:51.917408,!AIVDO,1,1,,B,12vg200001`cSOJAsDuTcG;N0000,0*21 :cal=0x65 get=0x21[1]
2025-08-28T15:54:51.944903,$GPRMC,075450,A,3119.7812,N,12121.7646,E,000.1,143.6,280825,006.5,S*64 :cal=0x60 get=0x64[1]
2025-08-28T15:54:51.963227,$GPGSV,2,2,08,25,62,102,50,28,46,26SYDBG,RSSI4435*11 :cal=0x1e get=0x11[1]
2025-08-28T15:54:51.981506,$CRMC,07545,W*6B :cal=0x7b get=0x6b[1]
2025-08-28T15:54:51.999904,$GPRMC,075449,A,3119.7813,N,12121.7646,E,000.1,138.0,280825,006.5,W*63 :cal=0x67 get=0x63[1]
2025-08-28T15:54:52.027341,$GPGSV,2,1,08,10,73,228,26,12,39,059,00,23,36,165,34,24,10,057,00*7A
2025-08-28T15:54:52.045676,$CPGGA,075451,3119.7812,N,12121.7645,E,1,04,27.353,M,0,M,,*69 :cal=0x5b get=0x69[1]
2025-08-28T15:54:52.063922,$SYDBG,RSSI6468*13 :cal=0x70 get=0x13[1]
2025-08-28T15:54:52.082284,$SYDBG,TXOK,msg1,07:54:48,NTT=1808,SlotNum1808,chanB*00 :cal=0x58 get=0x0[1]
2025-08-28T15:54:52.091575,$SYDBG,PREPAE MSG1*11 :cal=0x3c get=0x11[1]
2025-08-28T15:54:52.109787,$SYDBC,RSSI426*11 :cal=0x54 get=0x11[1]
2025-08-28T15:54:52.128102,$GPRMC,075451,A,3119.7812,N,12121.7645,E,000.1,149.6,280825,006.5,W*6C
2025-08-28T15:54:52.146454,$GPRMC,075447,A,3119.7814,N,12121.7645,E,000.1,119.7,280825,006.5,W*69
2025-08-28T15:54:52.173907,$GPGGA,075449,3119.3813,N,1216,E,1,04,2.42,27'44,M,0,M,,*60 :cal=0x59 get=0x60[1]
2025-08-28T15:54:52.192376,!AIVDO,1,1,,B,12vg200001`cSOJAsDuTcG;N0000,0*21 :cal=0x65 get=0x21[1]
2025-08-28T15:54:52.219743,$GPRMC,075450,A,3119.7812,N,12121.7646,E,000.1,143.6,280825,006.5,S*64 :cal=0x60 get=0x64[1]
2025-08-28T15:54:52.238104,$GPGSV,2,2,08,25,62,102,50,28,46,26SYDBG,RSSI4435*11 :cal=0x1e get=0x11[1]
2025-08-28T15:54:52.256401,$CRMC,07545,W*6B :cal=0x7b get=0x6b[1]
2025-08-28T15:54:52.283861,$GPRMC,075449,A,3119.7813,N,12121.7646,E,000.1,138.0,280825,006.5,W*63 :cal=0x67 get=0x63[1]
2025-08-28T15:54:52.302220,$CPGGA,075451,3119.7812,N,12121.7645,E,1,04,27.353,M,0,M,,*69 :cal=0x5b get=0x69[1]
2025-08-28T15:54:52.320518,$SYDBG,RSSI6468*13 :cal=0x70 get=0x13[1]
2025-08-28T15:54:52.338946,$SYDBG,TXOK,msg1,07:54:48,NTT=1808,SlotNum1808,chanB*00 :cal=0x58 get=0x0[1]
2025-08-28T15:54:52.348132,$SYDBG,PREPAE MSG1*11 :cal=0x3c get=0x11[1]
2025-08-28T15:54:52.366359,$SYDBC,RSSI426*11 :cal=0x54 get=0x11[1]
2025-08-28T15:54:52.393882,$GPRMC,075451,A,3119.7812,N,12121.745,E,000.1,149.6,280825,006.5,W*6C :cal=0x41 get=0x6c[1]
2025-08-28T15:54:52.412133,$GPRMC,075447,A,3119.7814,N,12121.7645,E,000.1,119.7,280825,006.5,W*69
2025-08-28T15:54:52.439638,$GPGGA,075449,3119.3813,N,1216,E,1,04,2.42,27'44,M,0,M,,*60 :cal=0x59 get=0x60[1]
2025-08-28T15:54:52.457928,!AIVDO,1,1,,B,12vg200001`cSOJAsDuTcG;N0000,0*21 :cal=0x65 get=0x21[1]
2025-08-28T15:54:52.485415,$GPRMC,075450,A,3119.7812,N,12121.7646,E,000.1,143.6,280825,006.5,S*64 :cal=0x60 get=0x64[1]
2025-08-28T15:54:52.503781,$GPGSVSYDBG,RSSI4435*11 :cal=0x1e get=0x107545,W*6B :cal=0x7b get=0x6b[1]
2025-08-28T15:54:52.531262,$GPRMC,075449,A,3119.7813,N,12121.7646,E,000.1,138.0,280825,006.5,W*63 :cal=0x67 get=0x63[1]
2025-08-28T15:54:52.558749,$CPGGA,075451,3119.7812,N,12121.7645,E,1,04,27.353,M,0,M,,*69 :cal=0x5b get=0x69[1]
2025-08-28T15:54:52.567895,$SYDBG,RSSI6468*13 :cal=0x70 get=0x13[1]
2025-08-28T15:54:52.586217,$GPRMC,075452,A,3119.7812,N,12121.7645,E,000.1,155.4,280825,006.5,W*60
2025-08-28T15:54:52.613656,$SYDBG,TXOK,msg1,07:54:48,NTT=1808,SlotNum1808,chanB*00 :cal=0x58 get=0x0[1]
2025-08-28T15:54:52.622903,$SYDBG,PREPAEG1*11 :cal=0x3c get=0x11[1]
2025-08-28T15:54:52.631983,$SYDBC26*11 :cal=0x54 get=0x11[1]
2025-08-28T15:54:52.677844,$GPRM,075451,A,3119.7812,N,12121.745,E,000.1,149.6,280825,006.5,W*6C :cal=MC,075447,A,3119.7814,N,12121.7645,E,000.1,119.7,280825,006.5,W*69
2025-08-28T15:54:52.696159,$GPGGA,075449,3119'3813,N,1216,E,1,04,2.42,27'44,M,0,M,,*60 :cal=0x50 get=0x60[1]
2025-08-28T15:54:52.714505,!AIVDO,1,1,,B,12vg200001`cSOJAsDuTcG;N0000,0*21 :cal=0x65 get=0x21[1]
2025-08-28T15:54:52.741930,$GPGGA,075452,3119.7812,N,12121.7645,E,1,04,2.42,27.364,M,0,M,,*6E
2025-08-28T15:54:52.769400,$GPRMC,075450,A,3119.7812,N,12121.7646,E,000.1,143.6,280825,006.5,S*64 :cal=0x60 get=0x64[1]
2025-08-28T15:54:52.778605,$GPGSVSYDBG,RSSI4435*11 :cal=0x2f get=0x11[1]
2025-08-28T15:54:52.806025,$GPRMC,075449,A,3119.7813,N,12121.7646,E,000.1,138.0,280825,006.5,W*63 :cal=0x67 get=0x63[1]
2025-08-28T15:54:52.833567,$CPGGA,075451,3119.7812,N,12121.7645,E,1,04,27.353,M,0,M,,*69 :cal=0x5b get=0x69[1]
2025-08-28T15:54:52.842742,$SYDBG,RSSI6468*13 :cal=0x70 get=0x13[1]
2025-08-28T15:54:52.861041,$GPRMC,075452,A,3119.7812,N,12121.7645,E,000.1,155.4,280825,006.5,W*60
2025-08-28T15:54:52.879463,$GPGSA,A,3,10,23,25,32,,,,,,,,,5.09,2.42,4.48*04
2025-08-28T15:54:52.897830,$SYDBG,TXOK,msg1,07:54:48,NTT=1808,SlotNum1808,chanB*00 :cal=0x58 get=0x0[1]
2025-08-28T15:54:52.906890,$SYDBG,PREPAEG1*11 :cal=0x2 get=0x11[1]
2025-08-28T15:54:52.925121,$SYDBC26*11 :cal=0x57 get=0x11[1]
2025-08-28T15:54:52.943577,$GPRM,075451,A,3119.7812,N,12121.745,E,000.1,149.6,280825,006.5,W*6C :cal=0x2 get=0x6c[1]
2025-08-28T15:54:52.970961,$GPGGA,075449,3119'3813,N,1216,E,1,04,2.42,27'44,M,0,M,,*60 :cal=0x50 get=0x60[1]
2025-08-28T15:54:52.989401,!AIVDO,1,1,,B,12vg200001`cSOJAsDuTcG;N0000,0*21 :cal=0x65 get=0x21[1]
2025-08-28T15:54:53.016763,$GPGSV,2,2,08,25,62,102,50,28,46,268,00,31,19,250,00,32,55,337,33*7B
2025-08-28T15:54:53.035093,$GPRMC,075450,A,3119.7812,N,12121.7646,E,000.1,143.6,280825,006.5,S*64 :cal=0x60 get=0x64[1]
2025-08-28T15:54:53.053397,$GPGSVSYDBG,RSSI4435*11 :cal=0x2f get=0x11[1]
2025-08-28T15:54:53.080960,$GPRMC,075449,A,3119.7813,N,12121.7646,E,000.1,138.0,280825,006.5,W*63 :cal=0x67 get=0x63[1]
2025-08-28T15:54:53.108354,$CPGGA,075451,3119.7812,N,12121.7645,E,1,04,27.353,M,0,M,,*69 :cal=0x5b get=0x69[1]
2025-08-28T15:54:53.117617,$SYDBG,RSSI6468*13 :cal=0x70 get=0x13[1]
2025-08-28T15:54:53.135891,$GPRMC,075452,A,3119.7812,N,12121.7645,E,000.1,155.4,280825,006.5,W*60
2025-08-28T15:54:53.163370,$SYDBG,TXOK,msg1,07:54:48,NTT=1808,SlotNum1808,chanB*00 :cal=0x58 get=0x0[1]
2025-08-28T15:54:53.172536,$SYDBG,PREPAEG1*11 :cal=0x2 get=0x11[1]
2025-08-28T15:54:53.181696,$SYDBC26*11 :cal=0x57 get=0x11[1]
2025-08-28T15:54:53.209125,$GPRM,075451,A,3119.7812,N,12121.745,E,000.1,149.6,280825,006.5,W*6C :cal=0x2 get=0x6c[1]
2025-08-28T15:54:53.227477,$GPGGA,075449,3119'3813,N,1216,E,1,04,2.42,27'44,M,0,M,,*60 :cal=0x50 get=0x60[1]
2025-08-28T15:54:53.254961,!AIVDG,1,1,,B,12vg200001`cSOJAsDuTcG;N0000,0*21 :cal=0x6d get=0x21[1]
2025-08-28T15:54:53.282449,$GPRMC,075450,A,3119.7812,N,12121.7646,E,000.1,143.6,280825,006.5,S*64 :cal=0x60 get=0x64[1]
2025-08-28T15:54:53.291664,$GPGSVSYDBG,RSSI4435*11 :cal=0x2f get=0x11[1]
2025-08-28T15:54:53.319082,$GPRMC,075449,A,3119.7813,N,12121.7646,E,000.1,138.0,280825,006.5,W*63 :cal=0x67 get=0x63[1]
2025-08-28T15:54:53.346619,$CPGGA,075451,3119.7812,N,12121.7645,E,1,04,27.353,M,0,M,,*69 :cal=0x5b get=0x69[1]
2025-08-28T15:54:53.355780,$SYDBG,RSSI6468*13 :cal=0x70 get=0x13[1]
2025-08-28T15:54:53.374096,$GPRMC,075452,A,3119.7812,N,12121.7645,E,000.1,155.4,280825,006.5,W*60
2025-08-28T15:54:53.401604,$SYDBG,TXOK,msg1,07:54:48,NTT=1808,SlotNum1808,chanB*00 :cal=0x58 get=0x0[1]
2025-08-28T15:54:53.410697,$SYDBG,PREPAEG1*11 :cal=0x2 get=0x11[1]
2025-08-28T15:54:53.419947,$SYDBC26*11 :cal=0x57 get=0x11[1]
2025-08-28T15:54:53.447384,$GPRM,075451,A,3119.812,N,12121.745,E,000.1,149.6,280825,006.5,W*6C :cal=0x2e get=0x6c[1]
2025-08-28T15:54:53.474916,$GPGGA,075449,3119'3813,N,1216,E,1,04,2.42,27'44,M,0,M,,*60 :cal=0x50 get=0x60[1]
2025-08-28T15:54:53.493159,!AIVDG,1,1,,B,12vg200001`cSOJAsDuTcG;N0000,0*21 :cal=0x6d get=0x21[1]
2025-08-28T15:54:53.520696,$GPRMC,075450,A,3119.7812,N,12121.7646,E,000.1,143.6,280825,006.5,S*64 :cal=0x60 get=0x64[1]
2025-08-28T15:54:53.529953,$GPGSVSYDBG,RSSI4435*11 :cal=0x2f get=0x11[1]
2025-08-28T15:54:53.557332,$GPRMC,075449,A,3119.7813,N,12121.7646,E,000.1,138.0,280825,006.5,W*63 :cal=0x67 get=0x63[1]
2025-08-28T15:54:53.575673,$GPRMC,075453,A,3119.7813,N,12121.7646,E,000.1,146.2,280825,006.5,W*67
2025-08-28T15:54:53.603095,$CPGGA,075451,3119.7812,N,12121.7645,E,1,04,27.353,M,0,M,,*69 :cal=0x5b get=0x69[1]
2025-08-28T15:54:53.630687,$SYG,RSSI6468*13 :cal=0x70 get=0x13[1]RMC,075452,A,3119.7812,N,12121.7645,E,000.1,155.4,280825,006.5,W*60
2025-08-28T15:54:53.658069,$SYDBG,TXOK,msg1,07:54:48,NTT=1808,SlotNum1808,chanB*00 :cal=0x58 get=0x0[1]
2025-08-28T15:54:53.667256,$SYDBG,PREPAEG1*11 :cal=0x2 get=0x11[1]
2025-08-28T15:54:53.694815,$SYDBC26*11 :cal=0x57 get=0745,E,000.1,149.6,280825,006.5,W*6C :cal=0x2e get=0x6c[1]
2025-08-28T15:54:53.722171,$GPGGA,075449,3119'3813,N,1216,E,1,04,2.42,27#44,M,0,M,,*60 :cal=0x54 get=0x60[1]
2025-08-28T15:54:53.740588,$GPGGA,075453,3119.7813,N,12121.7646,E,1,04,2.42,27.036,M,0,M,,*69
2025-08-28T15:54:53.758903,!AIVDG,1,1,,B,12vg200001`cSOJAsDuTcG;N0000,0*21 :cal=0x6d get=0x21[1]
2025-08-28T15:54:53.786332,$GPRMC,075450,A,3119.7812,N,12121.7646,E,000.1,143.6,280825,006.5,S*64 :cal=0x60 get=0x64[1]
2025-08-28T15:54:53.795556,$GPGSVSYDBG,RSSI4435*11 :cal=0x2f get=0x11[1]
2025-08-28T15:54:53.823014,$GPRMC,075449,A,3119.7813,N,12121.7646,E,000.1,138.0,280825,006.5,W*63 :cal=0x67 get=0x63[1]
2025-08-28T15:54:53.850450,$GPRMC,075453,A,3119.7813,N,12121.7646,E,000.1,146.2,280825,006.5,W*67
2025-08-28T15:54:53.859670,$GPGSA,A,3,10,23,25,32,,,,,,,,,5.09,2.42,4.48*04
2025-08-28T15:54:53.887106,$CPGGA,075451,3119.7812,N,12121.7645,E,1,04,27.353,M,0,M,,*69 :cal=0x5b get=0x69[1]
2025-08-28T15:54:53.896388,$SYG,RSSI6468*13 :cal=0x76 get=0x13[1]
2025-08-28T15:54:53.914696,$SYDBG,TXOK,msg1,07:54:48,NTT=1808,SlotNum1808,chanB*00 :cal=0x58 get=0x0[1]
2025-08-28T15:54:53.933005,$SYDBG,PREPAEG1*11 :cal=0x2 get=0x11[1]
2025-08-28T15:54:53.942096,$SYDBC26*11 :cal=0x57 get=0x11[1]
2025-08-28T15:54:53.960406,$SYDBG,RXOK,msg18,07:54:54,NTT=0,SlotNum=0,chanA*00
2025-08-28T15:54:53.969641,!AIVDM,1,1,,A,B6:`omh002:qPP4Nmtd000N021Mk,0*77
2025-08-28T15:54:53.997122,$GPGGA,075449,3119'3813,N,1216,E,1,04,2.42,27#44,M,0,M,,*60 :cal=0x54 get=0x60[1]
2025-08-28T15:54:54.015425,!AIVDG,1,1,,B,12vg200001`cSOJAsDuTcG;N0000,0*21 :cal=0x6d get=0x21[1]
2025-08-28T15:54:54.024648,$G00,23,36,165,33,24,10,057,00*7E
2025-08-28T15:54:54.042958,$G2,N,12121.7646,E,000.1,143.6,280825,006.5,S*64 :cal=0x60 get=0x64[1]
2025-08-28T15:54:54.061189,PGSVSYDBG,RSSI4435*11 :cal=0x2f get=0x11[1]
2025-08-28T15:54:54.088670,$GPRMC,075449,A,3119.7813,N,12121.7646,E,000.1,138.0,280825,006.5,W*63 :cal=0x67 get=0x63[1]
2025-08-28T15:54:54.107021,$GPRMC,075453,A,3119.7813,N,12121.7646,E,000.1,146.2,280825,006.5,W*67
2025-08-28T15:54:54.125386,$CPGGA,075451,3119.7812,N,12121.7645,E,1,04,27.353,M,0,M,,*69 :cal=0x5b get=0x69[1]
2025-08-28T15:54:54.143660,$SYG,RSSI6468*13 :cal=0x76 get=0x13[1]
2025-08-28T15:54:54.162001,$SYDBG,TXOK,msg1,07:54:48,NTT=1808,SlotNum1808,chanB*00 :cal=0x58 get=0x0[1]
2025-08-28T15:54:54.171144,$SYDBG,PREPAEG1*11 :cal=0x2 get=0x11[1]
