2025-08-28T16:08:18.770099,0.1,284.1,280825,006.5,W*6D
2025-08-28T16:08:18.795925,$GPRMC,08014,A,3119.7836,N,12121.7627,E,000.1,292.1,280825,006.5,W*6B
2025-08-28T16:08:18.823435,$SYDBG,TX1,SlotNum=50*00 :cal=0x2f get=0x0[0818,A,3119.7836,N,12121.7627,E,000.1,285.4,280825,006.5,W*64
2025-08-28T16:08:18.841763,$SYDBG,RX7629,E,000.0,166.5,280825,006.5,W*6F :cal=0x59 get=0x6f[1]
2025-08-28T16:08:18.860014,$GPGSA,A,3,10,12,23,25,32,,,,,,,,4.05,2.07,3.48*0C
2025-08-28T16:08:18.869252,$SYDBG,PREPARE VDM REPEAT*11 :cal=0x6e get=0x11[1]
2025-08-28T16:08:18.887542,$SYDBG,RSSI6276*11 :cal=0x79 get=0x11[1]
2025-08-28T16:08:18.896732,$SYDBG,PREPM REPEAT*=, :cal=0xa get=0x0[1]
2025-08-28T16:08:18.915008,$GPRMC,080817,A,3119.7836,N,12121.7627,E,000.1,284.9,280825,006.5,W*67
2025-08-28T16:08:18.933339,$812,A0.0,166.5,280825,006.5,W*66 :cal=0x2d get=0x66[1]
2025-08-28T16:08:18.951628,$SYDBG,PREPARE VDM REPEAT*11 :cal=0x6e get=0x11[1]
2025-08-28T16:08:18.960807,$SYDBG,RSSI5946*11 :cal=0x72 get=0x11[1]
2025-08-28T16:08:18.979149,$GPRMC,080816,A,3119.7836,N,12121.7627,E,000.1,284.7,280825,006.5,W*68
2025-08-28T16:08:18.997555,$GPGSV,3,3,11,28,49,277,18,31,23,255,24,32,59,345,35*4B
2025-08-28T16:08:19.015803,$GPGGA,080818,3119.7836,N,,26.641,M,0,M,,*67 :cal=0x16 get=0x67[1]
2025-08-28T16:08:19.034118,!AIVDO,1,1,,:08:14,NTT=526,SlotNum=526,chanB*00 :cal=0xe get=0x0[1]
2025-08-28T16:08:19.061546,$GPRMC,080815,A,3119.7836,N,12121.7627,E,000.1,284.1,280825,006.5,W*6D
2025-08-28T16:08:19.079993,$GPRMC,08014,A,3119.7836,N,12121.7627,E,000.1,292.1,280825,006.5,W*6B :cal=0x53 get=0x6b[1]
2025-08-28T16:08:19.098240,$SYDBG,TX1,SlotNum=50*00 :cal=0x3c get=0x0[1]
2025-08-28T16:08:19.116519,$SYDBG,RX7629,E,000.0,166.5,280825,006.5,W*6F :cal=0x59 get=0x6f[1]
2025-08-28T16:08:19.134878,$SYDBG,PREPARE VDM REPEAT*11 :cal=0x6e get=0x11[1]
2025-08-28T16:08:19.144005,$SYDBG,RSSI6276*11 :cal=0x79 get=0x11[1]
2025-08-28T16:08:19.153179,$SYDBG,PREPM REPEAT*=, :cal=0xa get=0x0[1]
2025-08-28T16:08:19.180732,$GPRMC,080817,A,3119.7836,N,12121.7627,E,000.1,284.9,280825,006.5,W*67
2025-08-28T16:08:19.189897,$812,A0.0,166.5,280825,006.5,W*66 :cal=0x2d get=0x66[1]
2025-08-28T16:08:19.208244,$SYDBG,PREPARE VDM REPEAT*11 :cal=0x6e get=0x11[1]
2025-08-28T16:08:19.217388,$SYDBG,RSSI5946*11 :cal=0x72 get=0x11[1]
2025-08-28T16:08:19.244888,$GPRMC,080816,A,3119.7836,N,12121.7627,E,000.1,284.7,280825,006.5,W*68
2025-08-28T16:08:19.263218,$GPGGA,080818,3119.7836,N,,26.641,M,0,M,,*67 :cal=0x16 get=0x67[1]
2025-08-28T16:08:19.281522,!AIVDO,1,1,,:08:14,NTT=526,SlotNum=526,chanB*00 :cal=0xe get=0x0[1]
2025-08-28T16:08:19.299914,$GPRMC,080815,A,3119.7836,N,12121.7627,E,000.1,284.1,280825,006.5,W*6D
2025-08-28T16:08:19.327303,$GPRMC,08014,A,3119.7836,N,12121.7627,E,000.1,292.1,280825,006.5,W*6B :cal=0x53 get=0x6b[1]
2025-08-28T16:08:19.345584,$SYDBG,TX1,SlotNum=50*00 :cal=0x3c get=0x0[1]
2025-08-28T16:08:19.363922,$SYDBG,RX7629,E,000.0,166.5,280825,006.5,W*6F :cal=0x59 get=0x6f[1]
2025-08-28T16:08:19.373095,$SYDBG,PREPARE VDM REPEAT*11 :cal=0x6e get=0x11[1]
2025-08-28T16:08:19.391421,$SYDBG,RSSI6276*11 :cal=0x79 get=0x11[1]
2025-08-28T16:08:19.400650,$SYDBG,PREPM REPEAT*=, :cal=0xa get=0x0[1]
2025-08-28T16:08:19.418941,$GPRMC,080817,A,3119.7836,N,12121.7627,E,000.1,284.9,280825,006.5,W*67
2025-08-28T16:08:19.437249,$812,A0.0,166.5,280825,006.5,W*66 :cal=0x2d get=0x66[1]
2025-08-28T16:08:19.455523,$SYDBG,PREPARE VDM REPEAT*11 :cal=0x6e get=0x11[1]
2025-08-28T16:08:19.464780,$SYDBG,RSSI5946*11 :cal=0x72 get=0x11[1]
2025-08-28T16:08:19.483051,$GPRMC,080816,A,3119.7836,N,12121.7627,E,000.1,284.7,280825,006.5,W*68
2025-08-28T16:08:19.501391,$GPGGA,080818,3119.7836,N,,26.641,M,0,M,,*67 :cal=0x16 get=0x67[1]
2025-08-28T16:08:19.519695,!AIVDO,1,1,,:08:14,NTT=526,SlotNum=526,chanB*00 :cal=0xe get=0x0[1]
2025-08-28T16:08:19.547095,$GPRMC,080815,A,3119.7836,N,12121.7627,E,000.1,284.1,280825,006.5,W*6D
2025-08-28T16:08:19.565477,$GPRMC,080819,A,3119.7836,N,12121.7625,E,000.1,283.6,280825,006.5,W*63
2025-08-28T16:08:19.592937,$GPRMC,08014,A,3119.7836,N,12121.7627,E,000.1,292.1,280825,006.5,W*6B :cal=0x53 get=0x6b[1]
2025-08-28T16:08:19.602102,$SYDBG,TX1,0*00 :cal=0x3c get=0x0[1]
2025-08-28T16:08:19.620498,$SYDBG,29,E,000.0,166.5,280825,006.5,W*6F :cal=0x59 get=0x6f[1]
2025-08-28T16:08:19.647939,$SYDBG,PREPARE VDM REPEAT*11 :cal=0x6e get=0x11RSSI6276*11 :cal=0x79 get=0x11[1]
2025-08-28T16:08:19.657053,$SYDBG,PREPM REPEAT*=, :cal=0xa get=0x0[1]
2025-08-28T16:08:19.675432,$GPRMC,080817,A,3119.7836,N,12121.7627,E,000.1,284.9,280825,006.5,W*67
2025-08-28T16:08:19.693764,$812,A0.0,166.5,280825,006.5,W*66 :cal=0x2d get=0x66[1]
2025-08-28T16:08:19.712063,$SYDBG,PREPARE VDM REPEAT*11 :cal=0x6e get=0x11[1]
2025-08-28T16:08:19.721745,$SYDBG,RSSI5946*11 :cal=0x72 get=0x11[1]
2025-08-28T16:08:19.739637,$GPGGA,080819,3119.7836,N,12121.7625,E,1,05,2.07,26.706,M,0,M,,*66
2025-08-28T16:08:19.757976,$GPRMC,080816,A,3119.7836,N,12121.7627,E,000.1,284.7,280825,006.5,W*68
2025-08-28T16:08:19.785408,$GPGGA,080818,3119.7836,N,,26.641,M,0,M,,*67 :cal=0x16 get=0x67[1]
2025-08-28T16:08:19.803803,!AIVDO,1,1,,:08:14,NTT=526,SlotNum=526,chanB*00 :cal=0xe get=0x0[1]
2025-08-28T16:08:19.822129,$GPRMC,080815,A,3119.7836,N,12121.7627,E,000.1,284.1,280825,006.5,W*6D
2025-08-28T16:08:19.840460,$GPRMC,080819,A,3119.7836,N,12121.7625,E,000.1,283.6,280825,006.5,W*63
2025-08-28T16:08:19.867853,$GPRMC,08014,A,3119.7836,N,12121.7627,E,000.1,292.1,280825,006.5,W*6B :cal=0x53 get=0x6b[1]
2025-08-28T16:08:19.886092,$GPGSA,A,3,10,12,23,25,32,,,,,,,,4.05,2.07,3.48*0C
2025-08-28T16:08:19.895326,$SYDBG,TX1,0*00 :cal=0x46 get=0x0[1]
2025-08-28T16:08:19.913633,$SYDBG,29,E,000.0,166.5,280825,006.5,W*6F :cal=0x52 get=0x6f[1]
2025-08-28T16:08:19.931951,$SYDBG,PREPARE VDM REPEAT*11 :cal=0x6e get=0x11[1]
2025-08-28T16:08:19.941156,$SYDBG,PREPM REPEAT*=, :cal=0xa get=0x0[1]
2025-08-28T16:08:19.959475,$GPRMC,080817,A,3119.7836,N,12121.7627,E,000.1,284.9,280825,006.5,W*67
2025-08-28T16:08:19.977746,$812,A0.0,166.5,280825,006.5,W*66 :cal=0x2d get=0x66[1]
2025-08-28T16:08:19.996084,$SYDBG,PREPARE VDM REPEAT*11 :cal=0x6e get=0x11[1]
2025-08-28T16:08:20.005309,$SYDBG,RSSI5946*11 :cal=0x72 get=0x11[1]
2025-08-28T16:08:20.023633,$GPGSV,3,1,11,01,00,344,25,10,67,212,24,12,35,053,24,20,,,19*46
2025-08-28T16:08:20.041937,$GPRMC,080816,A,3119.7836,N,12121.7627,E,000.1,284.7,280825,006.5,W*68
2025-08-28T16:08:20.060217,$GPGGA,080818,3119.7836,N,,26.641,M,0,M,,*67 :cal=0x16 get=0x67[1]
2025-08-28T16:08:20.078556,!AIVDO,1,1,,:08:14,NTT=526,SlotNum=526,chanB*00 :cal=0xe get=0x0[1]
2025-08-28T16:08:20.106042,$GPRMC,080815,A,3119.7836,N,12121.7627,E,000.1,284.1,280825,006.5,W*6D
2025-08-28T16:08:20.124437,$GPRMC,080819,A,3119.7836,N,12121.7625,E,000.1,283.6,280825,006.5,W*63
2025-08-28T16:08:20.151818,$GPRMC,08014,A,3119.7836,N,12121.7627,E,000.1,292.1,280825,006.5,W*6B :cal=0x53 get=0x6b[1]
2025-08-28T16:08:20.161059,$SYDBG,TX1,0*00 :cal=0x46 get=0x0[1]
2025-08-28T16:08:20.179335,$SYDBG,29,E,000.0,166.5,280825,006.5,W*6F :cal=0x52 get=0x6f[1]
2025-08-28T16:08:20.197656,$SYDBG,PREPARE VDM REPEAT*11 :cal=0x6e get=0x11[1]
2025-08-28T16:08:20.206904,$SYDBG,PREPM REPEAT*=, :cal=0xa get=0x0[1]
2025-08-28T16:08:20.225247,$GPRMC,080817,A,3119.7836,N,12121.7627,E,000.1,284.9,280825,006.5,W*67
2025-08-28T16:08:20.243486,$812,A0.0,166.5,280825,006.5,W*66 :cal=0x2d get=0x66[1]
2025-08-28T16:08:20.261795,$SYDBG,PREPARE VDM REPEAT*11 :cal=0x6e get=0x11[1]
2025-08-28T16:08:20.271004,$SYDBG,RSSI5946*11 :cal=0x72 get=0x11[1]
2025-08-28T16:08:20.289365,$GPRMC,080816,A,3119.7836,N,12121.7627,E,000.1,284.7,280825,006.5,W*68
2025-08-28T16:08:20.307677,$GPGGA,080818,3119.7836,N,,26.641,M,0,M,,*67 :cal=0x16 get=0x67[1]
2025-08-28T16:08:20.335083,!AIVDO,1,1,,:08:14,NTT=526,SlotNum=526,chanB*00 :cal=0xe get=0x0[1]
2025-08-28T16:08:20.353452,$GPRMC,080815,A,3119.7836,N,12121.7627,E,000.1,284.1,280825,006.5,W*6D
2025-08-28T16:08:20.371803,$GPRMC,080819,A,3119.7836,N,12121.7625,E,000.1,283.6,280825,006.5,W*63
2025-08-28T16:08:20.399180,$GPRMC,08014,A,3119.7836,N,12121.7627,E,000.1,292.1,280825,006.5,W*6B :cal=0x53 get=0x6b[1]
2025-08-28T16:08:20.408381,$SYDBG,TX1,0*00 :cal=0x46 get=0x0[1]
2025-08-28T16:08:20.426730,$SYDBG,29,E,000.0,166.5,280825,006.5,W*6F :cal=0x52 get=0x6f[1]
2025-08-28T16:08:20.445035,$SYDBG,PREPARE VDM REPEAT*11 :cal=0x6e get=0x11[1]
2025-08-28T16:08:20.454249,$SYDBG,PREPM REPEAT*=, :cal=0xa get=0x0[1]
2025-08-28T16:08:20.472604,$GPRMC,080817,A,3119.7836,N,12121.7627,E,000.1,284.9,280825,006.5,W*67
2025-08-28T16:08:20.490828,$812,A0.0,166.5,280825,006.5,W*66 :cal=0x2d get=0x66[1]
2025-08-28T16:08:20.509106,$SYDBG,PREPARE VDM REPEAT*11 :cal=0x6e get=0x11[1]
2025-08-28T16:08:20.518312,$SYDBG,RSSI5946*11 :cal=2 get=0x11[1]
2025-08-28T16:08:20.536679,$GPRMC,080816,A,3119.7836,N,12121.7627,E,000.1,284.7,280825,006.5,W*68
2025-08-28T16:08:20.573284,$GPGGA,080818,3119.7836,N,,26.641,M,0,M,,*67 :cal=0x10820,A,3119.7836,N,12121.7624,E,000.1,283.8,280825,006.5,W*66
2025-08-28T16:08:20.591611,!AIVDO,1,1,,:08:14,NTT=526,SlotNum=526,chanB*00 :cal=0xe get=0x0[1]
2025-08-28T16:08:20.609961,$GPRMC,080815,A,3119.7836,N,12121.7627,E,000.1,284.1,280825,006.5,W*6D
2025-08-28T16:08:20.637387,$GPRMC,080819,A,3119.7836,N,12121.7625,E,000.1,283.6,280825,006.5,W*63
2025-08-28T16:08:20.664921,$GP014,A,3119.7836,N,12121.7627,E,000.1,292.1,280825,006.5,W*6B :cal=0x53 DBG,TX1,0*00 :cal=0x46 get=0x0[1]
2025-08-28T16:08:20.683205,$SYDBG,29,E,000.0,166.5,280825,006.5,W*6F :cal=0x52 get=0x6f[1]
2025-08-28T16:08:20.701515,$SYDBG,PREPARE VDM REPEAT*11 :cal=0x6e get=0x11[1]
2025-08-28T16:08:20.719866,$SYDBG,PREPM REPEAT*=, :12121.7624,E,1,05,2.07,26.769,M,0,M,,*64
2025-08-28T16:08:20.738352,$GPRMC,080817,A,3119.7836,N,12121.7627,E,000.1,284.9,280825,006.5,W*67
2025-08-28T16:08:20.756651,$812,A0.0,166.5,280825,006.5,W*66 :cal=0x2d get=0x66[1]
2025-08-28T16:08:20.766527,$Scal=0x72 get=0x11[1]
2025-08-28T16:08:20.767115,$SYDBG,PREPARE MSG1*11
2025-08-28T16:08:20.793220,$GPRMC,080816,A,3119.7836,N,12121.7627,E,000.1,284.7,280825,006.5,W*68
2025-08-28T16:08:20.820756,$GPGGA,080818,3119.7836,N,,26.641,M,0,M,,*67 :cal=0x16 g!AIVDO,1,1,,:08:14,NTT=526,SlotNum=526,chanB*00 :cal=0xe get=0x0[1]
2025-08-28T16:08:20.839096,$GPGSA,A,3,10,12,23,25,32,,,,,,,,4.05,2.07,3.48*0C
2025-08-28T16:08:20.857293,$GPRMC,080815,A,3119.7836,N,12121.7627,E,000.1,284.1,280825,006.5,W*6D
2025-08-28T16:08:20.866444,$SYDBG,RSSI4443*11
2025-08-28T16:08:20.884815,$GPRMC,080819,A,3119.7836,N,12121.7625,E,000.1,283.6,280825,006.5,W*63
2025-08-28T16:08:20.912225,$GP014,A,3119.7836,N,12121.7627,E,000.1,292.1,280825,006.5,W*6B :cal=0x2b get=0x6b[1]
2025-08-28T16:08:20.930593,$SYDBG,29,E,000.0,166.5,280825,006.5,W*6F :cal=0x52 get=0x6f[1]
2025-08-28T16:08:20.948890,$SYDBG,PREPARE VDM REPEAT*11 :cal=0x6e get=0x11[1]
2025-08-28T16:08:20.958053,!AIVDO,1,1,,A,12vg200001`cSNnAsE3;8OvR0000,0*69
2025-08-28T16:08:20.976369,$SYDBG,TXOK,msg1,08:08:21,NTT=769,SlotNum=769,chanA*00
2025-08-28T16:08:21.003845,$SYDBG,PREPM REPEAT*=, :cal=0xa get=080817,A,3119.7836,N,12121.7627,E,000.1,284.9,280825,006.5,W*67
2025-08-28T16:08:21.022185,$812,A0.0,166.5,280825,006.5,W*66 :cal=0x2d get=0x66[1]
2025-08-28T16:08:21.031426,$GPGSV,3,2,11,23,3025,62,086,44,26,07,207,15*76
2025-08-28T16:08:21.040498,$SY[1]
2025-08-28T16:08:21.058873,$GPRMC,080816,A,3119.7836,N,12121.7627,E,000.1,284.7,280825,006.5,W*68
2025-08-28T16:08:21.077137,$GPGGA,080818,3119.7836,N,,26.641,M,0,M,,*67 :cal=0x16 get=0x6[1]
2025-08-28T16:08:21.095513,!AIVDO,1,1,,:08:14,NTT=526,SlotNum=526,chanB*00 :cal=0xe get=0x0[1]
2025-08-28T16:08:21.113878,$GPRMC,080815,A,3119.7836,N,12121.7627,E,000.1,284.1,280825,006.5,W*6D
2025-08-28T16:08:21.123037,$SYDBG,RSSI4443*11 :cal=0x7b g[1]
2025-08-28T16:08:21.150477,$GPRMC,080819,A,3119.7836,N,12121.7625,E,000.1,283.6,280825,006.5,W*63
2025-08-28T16:08:21.168828,$GP014,A,3119.7836,N,12121.7627,E,000.1,292.1,280825,006.5,W*6B :cal=0x2b get=0x6b[1]
2025-08-28T16:08:21.187092,$SYDBG,29,E,000.0,166.5,280825,006.5,W*6F :ca[1]
2025-08-28T16:08:21.205374,$SYDBG,PREPARE VDM REPEAT*11 :cal=0x6e get=0x11[1]
2025-08-28T16:08:21.205792,$AIMSG,S,0*32
2025-08-28T16:08:21.214551,$SYDBG,PREPARE VDM REPEAT*11
2025-08-28T16:08:21.223740,$SYDBG,RSSI4559*11
2025-08-28T16:08:21.242035,$SYDBG,TXOK,msg1,1,NTT=769,SlotNum=769,chanA*00 :calAT*=, :cal=0xa get=0x0[1]
2025-08-28T16:08:21.260440,$812,A0.0,166.5,280825,006.5,W*66 :cal=0x2d get=0x66[1]
2025-08-28T16:08:21.269586,!AIVDO,1,1,,A,12vg200001`cSNnAsE3;8OvR0000,0*69
2025-08-28T16:08:21.287901,$SYDBG,TXOK,msg1,08:08:21,NTT=781,SlotNum=781,chanA*00
2025-08-28T16:08:21.333685,$GPGSV,3,2,11,23,3025,62,086,44,26,07,207,15*76 :cal=0x5816,A,3119.7836,N,12121.7627,E,000818,3119.7836,N,,26.641,M,0,M,,*67 :cal=0x16 get=0x67[1]
2025-08-28T16:08:21.351971,!AIVDO,1,1,,:08:14,NTT=526,SlotNum=526,chanB*00 :cal=0xe get=0x0[1]
2025-08-28T16:08:21.370361,$SYDBG,RSSI44C,080815,A,3119.7836,N,12121.7627,E,000.1,284.1,280825,006.5,W*6D
2025-08-28T16:08:21.388663,$GP625,E,000.1,283.6,280825,006.5,W*63
2025-08-28T16:08:21.416117,$GP014,A,3119.7836,N,12121.7627,E,000.1,292.1,280825,006.5,W*6B :cal80825,006.5,W*6F :cal=0x52 get=0x6f[1]
2025-08-28T16:08:21.434478,$SYDBG,PREPARE VDM REPEAT*11 :cal=0x6e get=0x11[1]
2025-08-28T16:08:21.443629,$SYDBG,PREPARE VDM REPEAT*11 :cal=0x6e get=0x11[1]
2025-08-28T16:08:21.461962,$SYDBG,RSSI4559*11 :cal=0x71 get=0x11[1]
2025-08-28T16:08:21.480282,$SYDBG,TXOK,msg1,1,NTT=769,SlotNum=769,chanA*00 :cal=0x43 g,W*66 :cal=0x2d get=0x66[1]
2025-08-28T16:08:21.489420,$AIMSG,S,0*32
2025-08-28T16:08:21.498590,$SYDBG,PREPARE VDM REPEAT*11
2025-08-28T16:08:21.500037,$SYDBG,RSSI4413*11
2025-08-28T16:08:21.526094,$SYDBG,TXOK,msg1,08:08:21,NTT=781,SlotNum=781,chanA*00 :cal=0x71 get=0x0[1]
2025-08-28T16:08:21.544370,$GPGSV,3,2,11,23,3025,62,086,44,26,07,207,15*76 :cal=0x59 get=0x76[1]
2025-08-28T16:08:21.562771,$GPRMC,080821,A,3119.7837,N,12121.7622,E,000.2,287.0,280825,006.5,W*6F
2025-08-28T16:08:21.580972,!AIVDO,1,1,,A,12vg200001`cSNnAsE3;8OvR0000,0*69
2025-08-28T16:08:21.599350,$SYDBG,TXOK,msg1,08:08:21,NTT=793,SlotNum=793,chanA*00
2025-08-28T16:08:21.635979,!AIVDO,1,1,,:08:14,NTT=526,SlotNum$SYDBG,RSSI44C,080815,A,3119.7836,N,12121.7627,E,000.1,284.1,280825,006.5,W*6D :cal=0x19 get=0x6d[1]
2025-08-28T16:08:21.654285,$GP625,E,000.1,283.6,280825,006.5,W*63 :cal=0x12 get=0x63[1]
2025-08-28T16:08:21.700106,$GP014,A,3119.7836,N,12121.7627,E,000.1,292.1,280825,006.5,W*6B :cal=0x2b get=0x6$SYDBG,PREPARE VDM REPEAT*11 :cal=0$SYDBG,PREPARE VDM REPEAT*11 :cal=0x6e get=0x11[1]
2025-08-28T16:08:21.709304,$SYDBG,RSSI4559*11 :cal=0x71 get=0x11[1]
2025-08-28T16:08:21.746041,$SYDBG,TXOK,msg1,1,NTT=769,SlotNum=769,chanA*00 :cal=0x43 get080821,3119.7837,N,EPARE VDM REPEAT*11 :cal=0x6e get=0x11[1]
2025-08-28T16:08:21.755181,$SYDBG,RSSI4413*11 :cal=0x7e get=0x11[1]
2025-08-28T16:08:21.782580,$SYDBG,TXOK,msg1,08:08:21,NTT=781,SlotNum=781,chanA*00 :cal=0x71 get=0x0[1]
2025-08-28T16:08:21.800887,$GPGSV,3,2,11,23,3025,62,086,44,26,07,207,15*76 :cal=0x59 get=0x76[1]
2025-08-28T16:08:21.810165,$GPRMC,080826.5,W*6F
2025-08-28T16:08:21.810639,$AIMSG,S,0*32
2025-08-28T16:08:21.820062,$SYDBG,PRE REPEAT*11
2025-08-28T16:08:21.830109,$GPGSA,A,3,10,12,23,25,,4.05,2.07,3.47*03
2025-08-28T16:08:21.846713,$SYDBG,TXOK,msg3,chanA*00 :cal=0x71 get=0x0[1]
2025-08-28T16:08:21.883374,$080815,A,3119.7836,N,12121.7627,E,000.1,284.1,280825,006.5,W*6D :cal=0x$GP625,E,000.1,283.6,280825,006.5,W*63 :cal=0x12 get=0x63[1]
2025-08-28T16:08:21.920004,$GP014,A,3119.7836,N,12121.7627,E,000.1,292.1,280825,006.5,W*6B :cal=0x2b get$SYDBG,PREPARE VDM REPEAT*11 :cal=0$SYDBG,RSSI4303*11
2025-08-28T16:08:21.929300,$SYDBG,PREPARE EAT*11 :cal=0x6e get=0x11[1]
2025-08-28T16:08:21.938366,$SYDB*11 :cal=0x71 get=0x11[1]
2025-08-28T16:08:21.956713,$GPGSV,3,3,11,28,49,277,18,31,23,255,24,32,59,345,35*4B
2025-08-28T16:08:21.974997,$SYDBG,TXOK,msg1,1,NTT=769,SlotNum=769,chanA*00 :cal=0x43 get=0x0[1]
2025-08-28T16:08:21.993317,$SYDBG,RSSI4413*11 :cal=0x7e get=0x11[1]
2025-08-28T16:08:22.011643,$SYDBG,TXOK,msg1,08:08:21,NTT=781,SlotNum=781,chanA*00 :cal=0x71 get=0x0[1]
2025-08-28T16:08:22.029960,!AIVDO,1,1,,A,12vg200001`cSNnAsE3;8OvR0000,0*69
2025-08-28T16:08:22.039110,$SYDBG,TXOK,msg1,08:08:22,NTT=809,SlotNum=809,chanA*00
2025-08-28T16:08:22.066576,$GPGSV,3,2,11,23,3025,62,086,44,26,07,207,15*76 :cal=0x59 get=0x76[1]
2025-08-28T16:08:22.075812,$GPRMC,080826.5,W*6F :cal=0x3 get=0x6f[1]
2025-08-28T16:08:22.084962,$SYDBG,PRE REPEAT*11 :cal=0x17 get=0x11[1]
2025-08-28T16:08:22.103238,$GPGSA,A,3,10,12,23,25,,4.05,2.07,3.47*03 :cal=0x2e get=0x3[1]
2025-08-28T16:08:22.121565,$SYDBG,TXOK,msg3,chanA*00 :cax60 get=0x0[1]
2025-08-28T16:08:22.139998,$080815,A,3119.7836,N,12121.7627,E,000.1,284.1,280825,006.5,W*6D :cal=0xa get=0x6d[1]
2025-08-28T16:08:22.158288,$GP625,E,000.1,283.6,280825,006.5,W*63 :cal=0x12 get=0x63[1]
2025-08-28T16:08:22.185809,$GP014,A,3119.7836,N,12121.7627,E,000.1,292.1,280825,006.5,W*6B :cal=0x2b get=0x6b[1]
2025-08-28T16:08:22.203975,$SYDBG,PREPARE VDM REPEAT*11 :cal=0x6e get=0x11[1]
2025-08-28T16:08:22.213195,$SYDBG,RSSI4303*11 :cal=0x78 get=0x11[1]
2025-08-28T16:08:22.222370,$SYDBG,PREPARE EAT*11 :cal=0x56 get=0x11[1]
2025-08-28T16:08:22.240640,$SYDB*11 :cal=0xc get=0x11[1]nA*0x0[1]
2025-08-28T16:08:22.249803,$SYDBG,RSSI4413*11 :calx11[1]
2025-08-28T16:08:22.268165,$SYDBG,TXOK,msg1,08:08:21,NTT=781,SlotNum=781,chanA*00 :cal=0x0x0[1]
2025-08-28T16:08:22.268585,$AIMSG,S,0*32
2025-08-28T16:08:22.277364,$SYDBG,PREPARE VDM REPEAT*11
2025-08-28T16:08:22.286429,$SYDBG,RSSI3957*11
2025-08-28T16:08:22.304807,$SYDBG,TXOK,msg1,08:08:22,NTT=809,SlotNum=809,chanA*00 :cal=0x72 x
2025-08-28T16:08:22.313956,$EPEAT*11 :cal=0x17 get=0x11[1]
2025-08-28T16:08:22.350606,$GOK,msg3,chanA*00 :cal=0x60 get=0x080815,A,3119.7836,N,12121.7627,E,000.1,284.1,280825,006.5,W*6D :cal=0xa get=0x6d[1]
2025-08-28T16:08:22.368935,$GP625,E,000.1,283.6,280825,006.5,W*63 :cal=0x12 get=0x63[1]
2025-08-28T16:08:22.387289,$GP014,A,3119.7836,N,12121.7627,E,000.1,292.1,280825,006.5,W*6B :cal=0x2b get=0x6b[1]
2025-08-28T16:08:22.405599,$SYDBG,PREPARE VDM REPEAT*11 :cal=0x6e get=0x11[1]
2025-08-28T16:08:22.414786,$SYDBG,RSSI4303*11 :cal=0x78 get=0x11[1]
2025-08-28T16:08:22.433081,$SYDBG,PREPARE EAT*11 :cal=0x56 get=0x11[1]
2025-08-28T16:08:22.442208,$SYDB*11 :cal=0xc get=0x11[1]
2025-08-28T16:08:22.460543,$SYDBG,TXERR0,msg1,08:08:22,NTT=821,SlotNum=821,chanA*00
2025-08-28T16:08:22.460993,$SYDBG,RSSI4360*11
2025-08-28T16:08:22.478820,$SYDBG,RSSI4413*11 :cal=0x7e get=0x11[1]
2025-08-28T16:08:22.497205,$,NTT=781,SlotNum=781,chanA*00 :calSYDBG,PREPARE VDM REPEAT*11 :cal=0x6e get=0x11[1]
2025-08-28T16:08:22.515481,$SYDBG,RSSI3957*11 :cal=0x74 get=0x11[1]
2025-08-28T16:08:22.524693,!AIVDO,1,1,,A,12vg200001`cSNnAsE3;8OvR0000,0*69
2025-08-28T16:08:22.542986,$SYDBG,TXOK,msg1,08:08:22,NTT=809,SlotNum=809,chanA*00 :cal=0x72 get=0x0[1]
2025-08-28T16:08:22.561359,$SYDBG,TXOK,msg1,08:08:22,NTT=831,SlotNum=831,chanA*00
2025-08-28T16:08:22.570517,$EPEAT*11 :cal=0x45 get=0x11[1]
2025-08-28T16:08:22.597958,$GPRMC,080822,A,3119.7837,N,12121.7621,E,000.2,289.3,280825,006.5,W*62
2025-08-28T16:08:22.598364,$GOK,ms]
2025-08-28T16:08:22.607091,$GP621292.1,280825,006.5,W*6B :cal=0x2b get=0x6b[1]
2025-08-28T16:08:22.625453,$SYDBG,PREPARE VDM REPEAT*11 :cal=0x6e get=0x11[1]
2025-08-28T16:08:22.643816,$SYDBG,RSSI4303*11 :cal=0x78 g,PREPARE EAT*11 :cal=0x56 get=0x11[1]
2025-08-28T16:08:22.652976,$SYDB*11 :cal=0xc get=0x11[1]
2025-08-28T16:08:22.680420,$SYDBG,TXERR0,msg1,08:08:22,NTT=821,SlotNum=821,chanA*00 :cal=0x3 get=0x0[1]
2025-08-28T16:08:22.689558,$SYDBG,RSSI4360*11 :cal=0x7d get=0x11[1]
2025-08-28T16:08:22.698853,$SYDBG,RSSI4413*11 :cal=0x7e get=0x11[1]
2025-08-28T16:08:22.717067,$GPGGA,080822,3119.7837,N,12121.7621,E,1,05,2.07,26.445,M,0,M,,*6F
2025-08-28T16:08:22.735436,$,NTT=781,SlotNum=781,chanA*00 :cal=0x55 get=0x0[1]
2025-08-28T16:08:22.744577,$SYDBG,RSSI3957*11 :cal=0x74 get=0x11[1]
2025-08-28T16:08:22.753730,$AIMSG,S,0*32
2025-08-28T16:08:22.762908,$SYDBG,PREPARE VDM REPEAT*11
2025-08-28T16:08:22.763298,$SYDBG,RSSI4447*11
2025-08-28T16:08:22.790334,$SYDBG,TXOK,msg1,08:08:22,NTT=809,SlotNum=809,chanA*00 :cal=0x7 get=0x0[1]
2025-08-28T16:08:22.808664,$SYDBG,TXOK,msg1,08:08:22,NTT=831,SlotNum=831,chanA*00 :c get=0x0[1]
2025-08-28T16:08:22.817860,$EPEAT*11 :cal=0x45 get=0x11[1]
2025-08-28T16:08:22.836157,$GPRMC,080822,A,3119.7837,N,12121.7621,E,000.2,289.3,280825,006.5,W*62
2025-08-28T16:08:22.854499,$GPGSA,A,3,10,12,23,25,32,,,,,,,,4.05,2.07,3.47*03
2025-08-28T16:08:22.863701,!AIVDO,1,1,,A,12vg200001`cSNnAsE3;8OvR0000,0*69
2025-08-28T16:08:22.881944,$SYDBG,TXOK,msg1,08:08:23,NTT=842,SlotNum=842,chanA*00
2025-08-28T16:08:22.900316,$GP621292.1,280825,006.5,W*6B :cal=0x57 get=0x6b[1]
2025-08-28T16:08:22.909494,$SYDBG,PREPARE VDM REPEAT*11 :cal=0x6e get=0x11[1]
2025-08-28T16:08:22.927819,$SYDBG,RSSI4303*11 :cal=0x78 get=0x11[1]
2025-08-28T16:08:22.936969,$SYDB*11 :cal=0xc get=0x11[1]
2025-08-28T16:08:22.946056,$SYDBG,TXERR0,msg1,08:08:22,NTT=821,
2025-08-28T16:08:22.955273,$SYDBG,RSSI4360*11 :cal=0x7d get=0
2025-08-28T16:08:22.964464,$SYDBG,RSSI4413*11 :cal=0x7e get=0
2025-08-28T16:08:22.973630,$,NTT=781,SlotNum=781,chanA*00 :ca
2025-08-28T16:08:22.982786,$SYDBG,RSSI3957*11 :cal=0x74 get=
2025-08-28T16:08:23.001088,$GPGSV,3,1,11,01,00,344,26,10,67,212,23,12,35,053,23,20,,,16*4A
2025-08-28T16:08:23.019398,$SYDBG,PREPARE VDM REPEAT*11 :cal=0x6e get=0x11[1]
2025-08-28T16:08:23.028615,$SYDBG,RSSI4447*11 :cal=0x7f get=0x11[1]
2025-08-28T16:08:23.056038,$SYDBG,TXOK,msg1,08:08:22,NTT=809,SlotNum=809,chanA*00 :cal=0x72 get=0x0[1]
2025-08-28T16:08:23.074386,$SYDBG,TXOK,msg1,08:08:22,NTT=831,SlotNum=831,chanA*00 :cal=0x72 get=0x0[1]
2025-08-28T16:08:23.083508,$EPEAT*11 :cal=0x45 get=0x11[1]
2025-08-28T16:08:23.101873,$GPRMC,080822,A,3119.7837,N,12121.7621,E,000.2,289.3,280825,006.5,W*62
2025-08-28T16:08:23.110986,$AIMSG,S,0*32
2025-08-28T16:08:23.120119,$SYDBG,PREPARE VDM REPEAT*11
2025-08-28T16:08:23.120457,$SYDBG,RSSI4862*11
2025-08-28T16:08:23.147642,$SYDBG,TXOK,msg1,08:08:23,NTT=842,SlotNum=842,chanA*00 :cal=0x73 get=0x0[1]
2025-08-28T16:08:23.156838,$GP621292.1,280825,006.5,W*6B :cal=0x57 get=0x6b[1]
2025-08-28T16:08:23.175187,$SYDBG,PREPARE VDM REPEAT*11 :cal=0x6e get=0x11[1]
2025-08-28T16:08:23.184348,$SYDBG,RSSI4303*11 :cal=0x78 get=0x11[1]
2025-08-28T16:08:23.193472,$SYDB*11 :cal=0xc get=0x11[1]
2025-08-28T16:08:23.211790,!AIVDO,1,1,,A,12vg200001`cSNnAsE3;8OvR0000,0*69
2025-08-28T16:08:23.230090,$SYDBG,TXOK,msg1,08:08:23,NTT=855,SlotNum=855,chanA*00
