2025-08-28T16:01:38.648462,63
2025-08-28T16:01:38.665378,$GPGGA,080138,3119.7841,N,12121.7629,E,1,04,2.40,2.458,M,0,M,,*5C
2025-08-28T16:01:38.683698,$GPRMC,080133,A,3119.7839,N,12121.7632,E,000.1,190.2,280825,006.5,W*6E
2025-08-28T16:01:38.692928,$SYDBG,PREPARE MSG1*11 :cal=0x6e get=0x11[1]
2025-08-28T16:01:38.720416,$GPRMC,080137,A,3119.7841,N,12121.7630,E,000.1,261.8,280825,006.5,W*60
2025-08-28T16:01:38.729551,$SYDBG,RSSI4204*11 :cal=0x7e get=0x11[1]
2025-08-28T16:01:38.747868,$GPRMC,080135,A,3119.7840,N,12121.7631,E,000.0,199.4,280825,006.5,W*6B
2025-08-28T16:01:38.766164,$GPRMC,080132,A,3119.7839,N,12121.7632,E,000.1,184.9,280825,006.5,W*61
2025-08-28T16:01:38.775384,$AIMSG,S,0*32
2025-08-28T16:01:38.784558,$SYDBG,PREPARE VDM REPEAT*11
2025-08-28T16:01:38.784764,$SYDBG,RSSI4196*11
2025-08-28T16:01:38.812029,$SYDBG,TXOK,msg1,08:01:38,NTT=1436,SlotNum=1436,chanA*00 :cal=0x70 get=0x0[1]
2025-08-28T16:01:38.830387,$GPRMC,080134,A,3119.7840,N,12121.7632,E,000.1,199.4,280825,006.5,W*68
2025-08-28T16:01:38.848684,$GPGSA,A,3,10,23,25,32,,,,,,,,,4.99,2.40,4.37*06
2025-08-28T16:01:38.867003,$GPRMC,080136,A,3119.7840,N,12121.7631,E,000.0,199.4,280825,006.5,W*68
2025-08-28T16:01:38.885300,$GPRMC,080138,A,3119.7841,N,12121.7629,E,000.1,268.5,280825,006.5,W*63
2025-08-28T16:01:38.903650,!AIVDO,1,1,,A,12vg200001`cSNtAsE4J>gw:0000,0*42
2025-08-28T16:01:38.921903,$SYDBG,TXOK,msg1,08:01:39,NTT=1444,SlotNum=1444,chanA*00
2025-08-28T16:01:38.940233,$GPRMC,080133,A,3119.7839,N,12121.7632,E,000.1,190.2,280825,006.5,W*6E
2025-08-28T16:01:38.949423,$SYDBG,PREPARE MSG1*11 :c1 :cal=0x7e get=0x11[1]
2025-08-28T16:01:38.967733,$GPRMC7841,N,12121.7630,E,000.1,261.8,280825,006.5,W*60
2025-08-28T16:01:38.985995,$GPRMC,080135,A,31112121.7631,E,000.0,199.4,280825,006.5,W*6B
2025-08-28T16:01:39.004339,$GPGSV,3,2,10,24,08,059,006,05,207,20,28,48,273,00*7E
2025-08-28T16:01:39.013528,$GPRMC84.9,280825,006.5,W*61
2025-08-28T16:01:39.022639,$SYDBG,PRE1 :cal=0x6e get=0x11[1]
2025-08-28T16:01:39.031868,$SYDBG,RSSI4196*11 :cal=0x76 get=0x11[1]
2025-08-28T16:01:39.059318,$SYDBG,TXOK,msg1,08:01:38,NTT=1436,SlotNum=1436,chanA*00 :cal=0x70 get=0x0[1]
2025-08-28T16:01:39.077645,$GPRMC,080134,A,3119.7840,N,12121.7632,E,000.1,199.4,280825,006.5,W*68
2025-08-28T16:01:39.095976,$GPRMC,080136,A,3119.7840,N,12121.7631,E,000.0,199.4,280825,006.5,W*68
2025-08-28T16:01:39.114325,$GPRMC,080138,A,3119.7841,N,12121.7629,E,000.1,268.5,280825,006.5,W*63
2025-08-28T16:01:39.123430,$AIMSG,S,0*32
2025-08-28T16:01:39.132625,$SYDBG,PREPARE VDM REPEAT*11
2025-08-28T16:01:39.132878,$SYDBG,RSSI4263*11
2025-08-28T16:01:39.169265,$SYDBG,TXOK,msg1,08:01:39,NTT=1444,SlotNum=1444,chanA*00 :cal=0DO,1,1,,A,12vg200001`cSNtAsE4J>gw:0000,0*42
2025-08-28T16:01:39.187573,$SYDBG,TXOK,msg1,08:01:39,NTT=1456,SlotNum=1456,chanA*00
2025-08-28T16:01:39.205908,$GPRMC,080133,A,3119.7839,N,12121.7632,E,000.1,190.2,280825,006.5,W*6E
2025-08-28T16:01:39.215126,$SYDBG,PREPARE MSG1*11 :cal=0x6e get=0x11[1]
2025-08-28T16:01:39.242562,$GPRMC7841,N,12121.7630,E,000.1,261.8,280825,006.5,W*60 :cal=0x24 get=0x60[1]
2025-08-28T16:01:39.260964,$GPRMC,080135,A,31112121.7631,E,000.0,199.4,280825,006.5,W*6B :cal=0x39 get=0x6b[1]
2025-08-28T16:01:39.288370,$GPGSV,3,2,10,24,08,059,006,05,207,20,28,48,273,00*7E :cal=0x53 get=0x7e[1]
2025-08-28T16:01:39.297585,$GPRMC84.9,280825,006.5,W*61 :cal=0x3 get=0x61[1]
2025-08-28T16:01:39.315859,$SYDBG,RSSI4196*11 :cal=0x76 get=0x11[1]
2025-08-28T16:01:39.334201,$SYDBG,TXOK,msg1,08:01:38,NTT=1436,SlochanA*00 :cal=0x70 get=0x0[1]
2025-08-28T16:01:39.343330,$GPR,E,000.1,199.4,280825,006.5,W*68
2025-08-28T16:01:39.361660,$N,12121.7631,E,000.0,199.4,280825,006.5,W*68
2025-08-28T16:01:39.379965,$GPRMC,080138,A,3119.7841,N,12121.7629,E,000.1,268.5,280825,006.5,W*63
2025-08-28T16:01:39.389173,$SYDBG,PREPARE VDM REPAT*11 :cal=0x6e get=0x11[1]
2025-08-28T16:01:39.398329,$SYDBGl=0x7f get=0x11[1]
2025-08-28T16:01:39.425774,$SYDBG,TXOK,msg1,08:01:39,NTT=1444,SlotNum=1444,chanA*00 :cal=0x71 get=0x0[1]
2025-08-28T16:01:39.444173,$SYDBG,TXOK,msg1,08:01:39,NTT=1456,SlotNum=1456,chanA*00 :cal=0x71 get=0x0[1]
2025-08-28T16:01:39.462447,$SYDBG,PREPARE MSG1*11 :cal=0x6e get=0x11[1]
2025-08-28T16:01:39.480745,$GPRMC,080133,A,3119.7839,N,12121.7632,E,000.1,190.2,280825,006.5,W*6E
2025-08-28T16:01:39.489945,$GPRMC7841,N,121216.5,W*60 :cal=0x24 get=0x60[1]
2025-08-28T16:01:39.517438,$GP112121.7631,E,000.0,199.4,280825,006.5,W*6B :cal=0x39 get=0x6b[1]
2025-08-28T16:01:39.544968,$GPGSV,3,2,10,24,08,059,006,05,207,20,28,48,273,00*7E :cal=0x53 get=0x7e[PRMC84.9,280825,006.5,W*61 :cal=0x3 get=0x61[1]
2025-08-28T16:01:39.563248,$SYDBG,RSSI4196*11 :cal=0x76 get=0x11[1]
2025-08-28T16:01:39.581571,$GPRMC,080139,A,3119.7841,N,12121.7628,E,000.1,267.0,280825,006.5,W*69
2025-08-28T16:01:39.599994,$SYDBG,TXOK,msg1,08:01:38,NTT=1436,SlochanA*00 :cal=0x43 get=0x0[1]
2025-08-28T16:01:39.636599,$GPR,E,000.1,199.4,280825,006.5,W*68 :cal=0x7b N,12121.7631,E,000.0,199.4,280825,006.5,W*68 :cal=0x41 get=0x68[1]
2025-08-28T16:01:39.654974,$GPRMC,080138,A,3119.7841,N,12121.7629,E,000.1,268.5,280825,006.5,W*63
2025-08-28T16:01:39.673213,$SYDBG,PREPARE VDM REPAT*11 :cal=0x2b get=0x11[1]
2025-08-28T16:01:39.691561,$SYDBG,TXOK,msg1,08:01:39,NTT=1444,SlotNum=1444,chanA*00 :cal=0x71 get=0x0[1]
2025-08-28T16:01:39.718998,$SYDBG,TXOK,msg1,08:01:39,NTT=1456,SlotNum=1456,chanA*00 :cal=0x71 get=0x0[1]
2025-08-28T16:01:39.728110,$SYDBG,PREPARE MSG1*11 :cal=0x6e get=0x11[1]
2025-08-28T16:01:39.746444,$GPGGA,080139,3119.7841,N,12121.7628,E,1,04,2.40,2.515,M,0,M,,*54
2025-08-28T16:01:39.764785,$GPRMC,080133,A,3119.7839,N,12121.7632,E,000.1,190.2,280825,006.5,W*6E
2025-08-28T16:01:39.783123,$GPRMC7841,N,121216.5,W*60 :cal=0x68 get=0x60[1]
2025-08-28T16:01:39.801389,$GP112121.7631,E,000.0,199.4,280825,006.5,W*6B :cal=0x5 get=0x6b[1]
2025-08-28T16:01:39.819805,$GPGSV,3,2,10,24,08,059,006,05,207,20,28,48,273,00*7E :cal=0x53 get=0x7e[1]
2025-08-28T16:01:39.838060,$SYDBG,RSSI4196*11 :cal=0x76 get=0x11[1]
2025-08-28T16:01:39.856366,$GPRMC,080139,A,3119.7841,N,12121.7628,E,000.1,267.0,280825,006.5,W*69
2025-08-28T16:01:39.874661,$GPGSA,A,3,10,23,25,32,,,,,,,,,4.99,2.40,4.37*06
2025-08-28T16:01:39.892983,$SYDBG,TXOK,msg1,08:01:38,NTT=1436,SlochanA*00 :cal=0x43 get=0x0[1]
2025-08-28T16:01:39.911350,$GPR,E,000.1,199.4,280825,006.5,W*68 :cal=0x7b get=0x68[1]
2025-08-28T16:01:39.920526,$SYDBG,PREPARE VDM REPAT*11 :cal=0x2b get=0x11[1]
2025-08-28T16:01:39.938888,$GPRMC,080138,A,3119.7841,N,12121.7629,E,000.1,268.5,280825,006.5,W*63
2025-08-28T16:01:39.966337,$SYDBG,TXOK,msg1,08:01:39,NTT=1444,SlotNum=1444,chanA*00 :cal=0x71 get=0x0[1]
2025-08-28T16:01:39.975509,$GPGSV,3,3,10,31,21,252,00,32,57,341,30*7A
2025-08-28T16:01:40.002951,$SYDBG,TXOK,msg1,08:01:39,NTT=1456,SlotNum=1456,chanA*00 :cal=0x71 get=0x0[1]
2025-08-28T16:01:40.012110,$SYDBG,PREPARE MSG1*11 :cal=0x6e get=0x11[1]
2025-08-28T16:01:40.030440,$GPRMC,080133,A,3119.7839,N,12121.7632,E,000.1,190.2,280825,006.5,W*6E
2025-08-28T16:01:40.048755,$GPRMC7841,N,121216.5,W*60 :cal=0x68 get=0x60[1]
2025-08-28T16:01:40.067156,$GP112121.7631,E,000.0,199.4,280825,006.5,W*6B :cal=0x5 get=0x6b[1]
2025-08-28T16:01:40.094580,$GPGSV,3,2,10,24,08,059,006,05,207,20,28,48,273,00*7E :cal=0x53 get=0x7e[1]
2025-08-28T16:01:40.103745,$SYDBG,RSSI4196*11 :cal=0x76 get=0x11[1]
2025-08-28T16:01:40.122084,$GPRMC,080139,A,3119.7841,N,12121.7628,E,000.1,267.0,280825,006.5,W*69
2025-08-28T16:01:40.140414,$SYDBG,TXOK,msg1,08:01:38,NTT=1436,SlochanA*00 :cal=0x43 get=0x0[1]
2025-08-28T16:01:40.158766,$GPR,E,000.1,199.4,280825,006.5,W*68 :cal=0x7b get=0x68[1]
2025-08-28T16:01:40.176998,$SYDBG,PREPARE VDM REPAT*11 :cal=0x2b get=0x11[1]
2025-08-28T16:01:40.195382,$GPRMC,080138,A,3119.7841,N,12121.7629,E,000.1,268.5,280825,006.5,W*63
2025-08-28T16:01:40.213735,$SYDBG,TXOK,msg1,08:01:39,NTT=1444,SlotNum=1444,chanA*00 :cal=0x71 get=0x0[1]
2025-08-28T16:01:40.241137,$SYDBG,TXOK,msg1,08:01:39,NTT=1456,SlotNum=1456,chanA*00 :cal=0x71 get=0x0[1]
2025-08-28T16:01:40.250357,$SYDBG,PREPARE MSG1*11 :cal=0x6e get=0x11[1]
2025-08-28T16:01:40.277775,$GPRMC,080133,A,3119.7839,N,12121.7632,E,000.1,190.2,280825,006.5,W*6E
2025-08-28T16:01:40.286940,$GPRMC7841,N,121216.5,W*60 :cal=0x68 get=0x60[1]
2025-08-28T16:01:40.305318,$GP112121.7631,E,000.0,199.4,280825,006.5,W*6B :cal=0x5 get=0x6b[1]
2025-08-28T16:01:40.332788,$GPGSV,3,2,10,24,08,059,006,05,207,20,28,48,273,00*7E :cal=0x53 get=0x7e[1]
2025-08-28T16:01:40.341919,$SYDBG,RSSI4196*11 :cal=0x76 get=0x11[1]
2025-08-28T16:01:40.360291,$GPRMC,080139,A,3119.7841,N,12121.7628,E,000.1,267.0,280825,006.5,W*69
2025-08-28T16:01:40.378638,$SYDBG,TXOK,msg1,08:01:38,NTT=1436,SlochanA*00 :cal=0x43 get=0x0[1]
2025-08-28T16:01:40.397034,$GPR,E,000.1,199.4,280825,006.5,W*68 :cal=0x7b get=0x68[1]
2025-08-28T16:01:40.415235,$SYDBG,PREPARE VDM REPAT*11 :cal=0x2b get=0x11[1]
2025-08-28T16:01:40.433560,$GPRMC,080138,A,3119.7841,N,12121.7629,E,000.1,268.5,280825,006.5,W*63
2025-08-28T16:01:40.461011,$SYDBG,TXOK,msg1,08:01:39,NTT=1444,SlotNum=1444,chanA*00 :cal=0x71 get=0x0[1]
2025-08-28T16:01:40.479358,$SYDBG,TXOK,msg1,08:01:39,NTT=1456,SlotNum=1456,chanA*00 :cal=0x71 get=0x0[1]
2025-08-28T16:01:40.497688,$SYDBG,PREPARE MSG1*11 :cal=0x6e get=0x11[1]
2025-08-28T16:01:40.516007,$GPRMC,080133,A,3119.7839,N,12121.7632,E,000.1,190.2,280825,006.5,W*6E
2025-08-28T16:01:40.525176,$GPRMC7841,N,121216.5,W*60 :cal=0x68 get=0x60[1]
2025-08-28T16:01:40.552686,$GP112121.7631,E,000.0,199.4,280825,006.5,W*6B :cal=0x5 get=0x6b[1]
2025-08-28T16:01:40.570979,$GPGSV,3,2,10,24,08,059,006,05,207,20,28,48,273,00*7E :cal=0x53 get=0x7e[1]
2025-08-28T16:01:40.589330,$GPRMC,080140,A,3119.7840,N,12121.7628,E,000.1,261.8,280825,006.5,W*68
2025-08-28T16:01:40.607667,$SYDBG,RSSI4196*11 :cal=0x76 get=0x11[1]
2025-08-28T16:01:40.625954,$GPRMC,080139,A,3119.7841,N,12121.7628,E,000.1,267.0,280825,006.5,W*69
2025-08-28T16:01:40.644378,$SYDBG,TXOK,msg1,08:01:38,NTT=1436,SlochanA*00 :cal=0x43 get=0x0[1]
2025-08-28T16:01:40.672110,$GPR,E,000.1,199.4,280825,006.5,W*68 :caBG,PREPARE VDM REPAT*11 :cal=0x2b get=0x11[1]
2025-08-28T16:01:40.690176,$GPRMC,080138,A,3119.7841,N,12121.7629,E,000.1,268.5,280825,006.5,W*63
2025-08-28T16:01:40.708523,$SYDBG,TXOK,msg1,08:01:39,NTT=1444,SlotNum=1444,chanA*00 :cal=0x71 get=0x0[1]
2025-08-28T16:01:40.735918,$SYDBG,TXOK,msg1,08:01:39,NTT=1456,SlotNum=1456,chanA*00 :cal=0x71 get=0x0[1]
2025-08-28T16:01:40.754157,$GPGGA,080140,3119.7840,N,12121.7628,E,1,04,2.40,2.506,M,0,M,,*59
2025-08-28T16:01:40.763394,$SYDBG,PREPARE MSG1*11 :cal=0x6e get=0x11[1]
2025-08-28T16:01:40.790923,$GPRMC,080133,A,3119.7839,N,12121.7632,E,000.1,190.2,280825,006.5,W*6E
2025-08-28T16:01:40.800124,$GPRMC7841,N,121216.5,W*60 :cal=0x68 get=0x60[1]
2025-08-28T16:01:40.818448,$GP112121.7631,E,000.0,199.4,280825,006.5,W*6B :cal=0x5 get=0x6b[1]
2025-08-28T16:01:40.845901,$GPGSV,3,2,10,24,08,059,006,05,207,20,28,48,273,00*7E :cal=0x53 get=0x7e[1]
2025-08-28T16:01:40.864223,$GPRMC,080140,A,3119.7840,N,12121.7628,E,000.1,261.8,280825,006.5,W*68
2025-08-28T16:01:40.882515,$GPGSA,A,3,10,23,25,32,,,,,,,,,4.99,2.40,4.37*06
2025-08-28T16:01:40.891646,$SYDBG,RSSI4196*11 :cal=0x76 get=0x11[1]
2025-08-28T16:01:40.909933,$GPRMC,080139,A,3119.7841,N,12121.7628,E,000.1,267.0,280825,006.5,W*69
2025-08-28T16:01:40.928298,$SYDBG,TXOK,msg1,08:01:38,NTT=1436,SlochanA*00 :cal=0x43 get=0x0[1]
2025-08-28T16:01:40.946599,$GPR,E,000.1,199.4,280825,006.5,W*68 :cal=0x7b get=0x68[1]
2025-08-28T16:01:40.964950,$GPRMC,080138,A,3119.7841,N,12121.7629,E,000.1,268.5,280825,006.5,W*63
2025-08-28T16:01:40.992376,$SYDBG,TXOK,msg1,08:01:39,NTT=1444,SlotNum=1444,chanA*00 :cal=0x71 get=0x0[1]
2025-08-28T16:01:41.010750,$SYDBG,TXOK,msg1,08:01:39,NTT=1456,SlotNum=1456,chanA*00 :cal=0x71 get=0x0[1]
2025-08-28T16:01:41.038229,$GPGSV,3,1,09,10,70,219,36,12,37,056,00,23,33,165,26,24,08,059,00*7A
2025-08-28T16:01:41.047346,$SYDBG,PREPARE MSG1*11 :cal=0x6e get=0x11[1]
2025-08-28T16:01:41.065717,$GPRMC,080133,A,3119.7839,N,12121.7632,E,000.1,190.2,280825,006.5,W*6E
2025-08-28T16:01:41.083999,$GPRMC7841,N,121216.5,W*60 :cal=0x68 get=0x60[1]
2025-08-28T16:01:41.102366,$GP112121.7631,E,000.0,199.4,280825,006.5,W*6B :cal=0x5 get=0x6b[1]
2025-08-28T16:01:41.120699,$GPGSV,3,2,10,24,08,059,006,05,207,20,28,48,273,00*7E :cal=0x53 get=0x7e[1]
2025-08-28T16:01:41.148099,$GPRMC,080140,A,3119.7840,N,12121.7628,E,000.1,261.8,280825,006.5,W*68
2025-08-28T16:01:41.157319,$SYDBG,RSSI4196*11 :cal=0x76 get=0x11[1]
2025-08-28T16:01:41.175685,$GPRMC,080139,A,3119.7841,N,12121.7628,E,000.1,267.0,280825,006.5,W*69
2025-08-28T16:01:41.193995,$SYDBG,TXOK,msg1,08:01:38,NTT=1436,SlochanA*00 :cal=0x43 get=0x0[1]
2025-08-28T16:01:41.212375,$GPR,E,000.1,199.4,280825,006.5,W*68 :cal=0x7b get=0x68[1]
2025-08-28T16:01:41.230724,$GPRMC,080138,A,3119.7841,N,12121.7629,E,000.1,268.5,280825,006.5,W*63
2025-08-28T16:01:41.258237,$SYDBG,TXOK,msg1,08:01:39,NTT=1444,SlotNum=1444,chanA*00 :cal=0x71 get=0x0[1]
2025-08-28T16:01:41.276513,$SYDBG,TXOK,msg1,08:01:39,NTT=1456,SlotNum=1456,chanA*00 :cal=0x71 get=0x0[1]
2025-08-28T16:01:41.294848,$SYDBG,PREPARE MSG1*11 :cal=0x6e get=0x11[1]
2025-08-28T16:01:41.313089,$GPRMC,080133,A,3119.7839,N,12121.7632,E,000.1,190.2,280825,006.5,W*6E
2025-08-28T16:01:41.331452,$GPRMC7841,N,121216.5,W*60 :cal=0x68 get=0x60[1]
2025-08-28T16:01:41.349802,$GP112121.7631,E,000.0,199.4,280825,006.5,W*6B :cal=0x5 get=0x6b[1]
2025-08-28T16:01:41.368090,$GPGSV,3,2,10,24,08,059,006,05,207,20,28,48,273,00*7E :cal=0x53 get=0x7e[1]
2025-08-28T16:01:41.386482,$GPRMC,080140,A,3119.7840,N,12121.7628,E,000.1,261.8,280825,006.5,W*68
2025-08-28T16:01:41.404764,$SYDBG,RSSI4196*11 :cal=0x76 get=0x11[1]
2025-08-28T16:01:41.423051,$GPRMC,080139,A,3119.7841,N,12121.7628,E,000.1,267.0,280825,006.5,W*69
2025-08-28T16:01:41.441428,$SYDBG,TXOK,msg1,08:01:38,NTT=1436,SlochanA*00 :cal=0x43 get=0x0[1]
2025-08-28T16:01:41.459697,$GPR,E,000.1,199.4,280825,006.5,W*68 :cal=0x7b get=0x68[1]
2025-08-28T16:01:41.477956,$GPRMC,080138,A,3119.7841,N,12121.7629,E,000.1,268.5,280825,006.5,W*63
2025-08-28T16:01:41.505476,$SYDBG,TXOK,msg1,08:01:39,NTT=1444,SlotNum=1444,chanA*00 :cal=0x71 get=0x0[1]
2025-08-28T16:01:41.523783,$SYDBG,TXOK,msg1,08:01:39,NTT=1456,SlotNum=1456,chanA*00 :cal=0x71 get=0x0[1]
2025-08-28T16:01:41.542103,$SYDBG,PREPARE MSG1*11 :cal=0x6e get=0x11[1]
2025-08-28T16:01:41.560393,$GPRMC,080133,A,3119.7839,N,12121.7632,E,000.1,190.2,280825,006.5,W*6E
2025-08-28T16:01:41.569579,$GPRMC7841,N,121216.5,W*60 :cal=0x68 get=0x60[1]
2025-08-28T16:01:41.597024,$GPRMC,080141,A,3119.7840,N,12121.7627,E,000.1,257.3,280825,006.5,W*68
2025-08-28T16:01:41.624629,$GP119.4,280825,006.5,W*6B :cal=0x5 g,3,2,10,24,08,059,006,05,207,20,28,48,273,00*7E :cal=0x53 get=0x7e[1]
2025-08-28T16:01:41.642866,$GPRMC,080140,A,3119.7840,N,12121.7628,E,000.1,261.8,280825,006.5,W*68
2025-08-28T16:01:41.661154,$SYDBG,RSSI4196*11 :cal=0x76 get=0x11[1]
2025-08-28T16:01:41.679534,$GPRMC,080139,A,3119.7841,N,12121.7628,E,000.1,267.0,280825,006.5,W*69
2025-08-28T16:01:41.697877,$SYDBG,TXOK,msg1,08:01:38,NTT=1436,SlochanA*00 :cal=0x43 get=0x0[1]
2025-08-28T16:01:41.716120,$GPR,E,000.1,199.4,280825,006.5,W*68 :cal=0x7b get=0x68[1]
2025-08-28T16:01:41.734498,$GPGGA,080141,3119.7840,N,12121.7627,E,1,04,2.40,2.522,M,0,M,,*51
2025-08-28T16:01:41.752866,$GPRMC,080138,A,3119.7841,N,12121.7629,E,000.1,268.5,280825,006.5,W*63
2025-08-28T16:01:41.780304,$SYDBG,TXOK,msg1,08:01:39,NTT=1444,SlotNum=1444,chanA*00 :cal=0x71 get=0x0[1]
2025-08-28T16:01:41.798642,$SYDBG,TXOK,msg1,08:01:39,NTT=1456,SlotNum=1456,chanA*00 :cal=0x71 get=0x0[1]
2025-08-28T16:01:41.816891,$SYDBG,PREPARE MSG1*11 :cal=0x6e get=0x11[1]
2025-08-28T16:01:41.835245,$GPRMC,080133,A,3119.7839,N,12121.7632,E,000.1,190.2,280825,006.5,W*6E
2025-08-28T16:01:41.844532,$GPRMC7841,N,121216.5,W*60 :cal=0x68 get=0x60[1]
2025-08-28T16:01:41.871940,$GPRMC,080141,A,3119.7840,N,12121.7627,E,000.1,257.3,280825,006.5,W*68
2025-08-28T16:01:41.881058,$GPGSA,A,3,10,23,25,32,,,,,,,,,4.99,2.40,4.37*06
2025-08-28T16:01:41.899397,$GP119.4,280825,006.5,W*6B :cal=0x67 get=0x6b[1]
2025-08-28T16:01:41.908632,$SYDBG,RSSI4196*11 :cal=0x76 get=0x11[1]
2025-08-28T16:01:41.926969,$GPRMC,080140,A,3119.7840,N,12121.7628,E,000.1,261.8,280825,006.5,W*68
2025-08-28T16:01:41.954494,$GPRMC,080139,A,3119.7841,N,12121.7628,E,000.1,267.0,280825,006.5,W*69
2025-08-28T16:01:41.972748,$SYDBG,TXOK,msg1,08:01:38,NTT=1436,SlochanA*00 :cal=0x43 get=0x0[1]
2025-08-28T16:01:41.991068,$GPR,E,000.1,199.4,280825,006.5,W*68 :cal=0x7b get=0x68[1]
2025-08-28T16:01:42.009407,$GPGSV,3,2,09,25,62,094,49,26,05,207,21,28,48,273,00,31,21,252,00*71
2025-08-28T16:01:42.027729,$GPRMC,080138,A,3119.7841,N,12121.7629,E,000.1,268.5,280825,006.5,W*63
2025-08-28T16:01:42.055107,$SYDBG,TXOK,msg1,08:01:39,NTT=1444,SlotNum=1444,chanA*00 :cal=0x71 get=0x0[1]
2025-08-28T16:01:42.073538,$SYDBG,TXOK,msg1,08:01:39,NTT=1456,SlotNum=1456,chanA*00 :cal=0x71 get=0x0[1]
2025-08-28T16:01:42.082722,$SYDBG,PREPARE MSG1*11 :cal=0x6e get=0x11[1]
2025-08-28T16:01:42.110143,$GPRMC,080133,A,3119.7839,N,12121.7632,E,000.1,190.2,280825,006.5,W*6E
2025-08-28T16:01:42.119336,$GPRMC7841,N,121216.5,W*60 :cal=0x68 get=0x60[1]
2025-08-28T16:01:42.146700,$GPRMC,080141,A,3119.7840,N,12121.7627,E,000.1,257.3,280825,006.5,W*68
2025-08-28T16:01:42.155966,$GP119.4,280825,006.5,W*6B :cal=0x67 get=0x6b[1]
2025-08-28T16:01:42.165099,$SYDBG,RSSI4196*11 :cal=0x76 get=0x11[1]
2025-08-28T16:01:42.192511,$GPRMC,080140,A,3119.7840,N,12121.7628,E,000.1,261.8,280825,006.5,W*68
2025-08-28T16:01:42.210882,$GPRMC,080139,A,3119.7841,N,12121.7628,E,000.1,267.0,280825,006.5,W*69
2025-08-28T16:01:42.229236,$SYDBG,TXOK,msg1,08:01:38,NTT=1436,SlochanA*00 :cal=0x43 get=0x0[1]
2025-08-28T16:01:42.247549,$GPR,E,000.1,199.4,280825,006.5,W*68 :cal=0x7b get=0x68[1]
2025-08-28T16:01:42.265946,$GPRMC,080138,A,3119.7841,N,12121.7629,E,000.1,268.5,280825,006.5,W*63
2025-08-28T16:01:42.293386,$SYDBG,TXOK,msg1,08:01:39,NTT=1444,SlotNum=1444,chanA*00 :cal=0x71 get=0x0[1]
2025-08-28T16:01:42.311676,$SYDBG,TXOK,msg1,08:01:39,NTT=1456,SlotNum=1456,chanA*00 :cal=0x71 get=0x0[1]
2025-08-28T16:01:42.329942,$SYDBG,PREPARE MSG1*11 :cal=0x6e get=0x11[1]
2025-08-28T16:01:42.348311,$GPRMC,080133,A,3119.7839,N,12121.7632,E,000.1,190.2,280825,006.5,W*6E
2025-08-28T16:01:42.357554,$GPRMC7841,N,121216.5,W*60 :cal=0x68 get=0x60[1]
2025-08-28T16:01:42.384971,$GPRMC,080141,A,3119.7840,N,12121.7627,E,000.1,257.3,280825,006.5,W*68
2025-08-28T16:01:42.394184,$GP119.4,280825,006.5,W*6B :cal=0x67 get=0x6b[1]
2025-08-28T16:01:42.412479,$SYDBG,RSSI4196*11 :cal=0x76 get=0x11[1]
2025-08-28T16:01:42.430747,$GPRMC,080140,A,3119.7840,N,12121.7628,E,000.1,261.8,280825,006.5,W*68
2025-08-28T16:01:42.449106,$GPRMC,080139,A,3119.7841,N,12121.7628,E,000.1,267.0,280825,006.5,W*69
2025-08-28T16:01:42.467583,$SYDBG,TXOK,msg1,08:01:38,NTT=1436,SlochanA*00 :cal=0x43 get=0x0[1]
2025-08-28T16:01:42.485768,$GPR,E,000.1,199.4,280825,006.5,W*68 :cal=0x7b get=0x68[1]
2025-08-28T16:01:42.504055,$GPRMC,080138,A,3119.7841,N,12121.7629,E,000.1,268.5,280825,006.5,W*63
2025-08-28T16:01:42.531504,$SYDBG,TXOK,msg1,08:01:39,NTT=1444,SlotNum=1444,chanA*00 :cal=0x71 get=0x0[1]
2025-08-28T16:01:42.549892,$SYDBG,TXOK,msg1,08:01:39,NTT=1456,SlotNum=1456,chanA*00 :cal=0x71 get=0x0[1]
2025-08-28T16:01:42.568182,$SYDBG,PREPARE MSG1*11 :cal=0x6e get=0x11[1]
2025-08-28T16:01:42.586573,$GPRMC,080142,A,3119.7839,N,12121.7626,E,000.1,254.6,280825,006.5,W*62
2025-08-28T16:01:42.604860,$GPRMC,080133,A,3119.7839,N,12121.7632,E,000.1,190.2,280825,006.5,W*6E
2025-08-28T16:01:42.632327,$GPRMC7841,N,121216.5,W*60 :caGPRMC,080141,A,3119.7840,N,12121.7627,E,000.1,257.3,280825,006.5,W*68
2025-08-28T16:01:42.650709,$GP119.4,280825,006.5,W*6B :cal=0x67 get=0x6b[1]
2025-08-28T16:01:42.659843,$SYDBG,RSSI4196*11 :cal=0x76 get=0x11[1]
2025-08-28T16:01:42.678205,$GPRMC,080140,A,3119.7840,N,12121.7628,E,000.1,261.8,280825,006.5,W*68
2025-08-28T16:01:42.705581,$GPRMC,080139,A,3119.7841,N,12121.7628,E,000.1,267.0,280825,006.5,W*69
2025-08-28T16:01:42.723921,$SYDBG,TXOK,msg1,08:01:38,NTT=1436,SlochanA*00 :cal=0x43 get=0x0[1]
2025-08-28T16:01:42.742246,$GPGGA,080142,3119.7839,N,12121.7626,E,1,04,2.40,2.589,M,0,M,,*5C
2025-08-28T16:01:42.760644,$GPR,E,000.1,199.4,280825,006.5,W*68 :cal=0x7b get=0x68[1]
2025-08-28T16:01:42.778910,$GPRMC,080138,A,3119.7841,N,12121.7629,E,000.1,268.5,280825,006.5,W*63
2025-08-28T16:01:42.806381,$SYDBG,TXOK,msg1,08:01:39,NTT=1444,SlotNum=1444,chanA*00 :cal=0x71 get=0x0[1]
2025-08-28T16:01:42.824758,$SYDBG,TXOK,msg1,08:01:39,NTT=1456,SlotNum=1456,chanA*00 :cal=0x71 get=0x0[1]
2025-08-28T16:01:42.833977,$SYDBG,PREPARE MSG1*11 :cal=0x6e get=0x11[1]
2025-08-28T16:01:42.861388,$GPRMC,080142,A,3119.7839,N,12121.7626,E,000.1,254.6,280825,006.5,W*62
2025-08-28T16:01:42.870579,$GPGSA,A,3,10,23,25,32,,,,,,,,,4.99,2.40,4.37*06
2025-08-28T16:01:42.888839,$GPRMC7841,N,121216.5,W*60 :cal=0x68 get=0x60[1]
2025-08-28T16:01:42.907186,$GPRMC,080133,A,3119.7839,N,12121.7632,E,000.1,190.2,280825,006.5,W*6E
2025-08-28T16:01:42.925488,$GP119.4,280825,006.5,W*6B :cal=0x67 get=0x6b[1]
2025-08-28T16:01:42.934664,$SYDBG,RSSI4196*11 :cal=0x76 get=0x11[1]
2025-08-28T16:01:42.943821,$GPGSV,3,3,09,32,57,341,30*46
2025-08-28T16:01:42.962198,$GPRMC,080140,A,3119.7840,N,12121.7628,E,000.1,261.8,280825,006.5,W*68
2025-08-28T16:01:42.980569,$GPRMC,080139,A,3119.7841,N,12121.7628,E,000.1,267.0,280825,006.5,W*69
2025-08-28T16:01:43.007963,$SYDBG,TXOK,msg1,08:01:38,NTT=1436,SlochanA*00 :cal=0x43 get=0x0[1]
2025-08-28T16:01:43.017092,$GPR,E,000.1,199.4,280825,006.5,W*68 :cal=0x7b get=0x68[1]
2025-08-28T16:01:43.044600,$GPRMC,080138,A,3119.7841,N,12121.7629,E,000.1,268.5,280825,006.5,W*63
2025-08-28T16:01:43.062972,$SYDBG,TXOK,msg1,08:01:39,NTT=1444,SlotNum=1444,chanA*00 :cal=0x71 get=0x0[1]
2025-08-28T16:01:43.090355,$SYDBG,TXOK,msg1,08:01:39,NTT=1456,SlotNum=1456,chanA*00 :cal=0x71 get=0x0[1]
2025-08-28T16:01:43.099583,$SYDBG,PREPARE MSG1*11 :cal=0x6e get=0x11[1]
2025-08-28T16:01:43.117905,$GPRMC,080142,A,3119.7839,N,12121.7626,E,000.1,254.6,280825,006.5,W*62
2025-08-28T16:01:43.136214,$GPRMC7841,N,121216.5,W*60 :cal=0x68 get=0x60[1]
2025-08-28T16:01:43.154546,$GPRMC,080133,A,3119.7839,N,12121.7632,E,000.1,190.2,280825,006.5,W*6E
2025-08-28T16:01:43.172798,$GP119.4,280825,006.5,W*6B :cal=0x67 get=0x6b[1]
2025-08-28T16:01:43.182002,$SYDBG,RSSI4196*11 :cal=0x76 get=0x11[1]
2025-08-28T16:01:43.200362,$GPRMC,080140,A,3119.7840,N,12121.7628,E,000.1,261.8,280825,006.5,W*68
2025-08-28T16:01:43.227809,$GPRMC,080139,A,3119.7841,N,12121.7628,E,000.1,267.0,280825,006.5,W*69
2025-08-28T16:01:43.246170,$SYDBG,TXOK,msg1,08:01:38,NTT=1436,SlochanA*00 :cal=0x43 get=0x0[1]
2025-08-28T16:01:43.264486,$GPR,E,000.1,199.4,280825,006.5,W*68 :cal=0x7b get=0x68[1]
2025-08-28T16:01:43.282870,$GPRMC,080138,A,3119.7841,N,12121.7629,E,000.1,268.5,280825,006.5,W*63
2025-08-28T16:01:43.301114,$SYDBG,TXOK,msg1,08:01:39,NTT=1444,SlotNum=1444,chanA*00 :cal=0x71 get=0x0[1]
2025-08-28T16:01:43.328608,$SYDBG,TXOK,msg1,08:01:39,NTT=1456,SlotNum=1456,chanA*00 :cal=0x71 get=0x0[1]
2025-08-28T16:01:43.337770,$SYDBG,PREPARE MSG1*11 :cal=0x6e get=0x11[1]
2025-08-28T16:01:43.356103,$GPRMC,080142,A,3119.7839,N,12121.7626,E,000.1,254.6,280825,006.5,W*62
2025-08-28T16:01:43.374472,$GPRMC7841,N,121216.5,W*60 :cal=0x68 get=0x60[1]
2025-08-28T16:01:43.392731,$GP119.4,280825,006.5,W*6B :cal=0x67 get=0x6b[1]
2025-08-28T16:01:43.411112,$GPRMC,080133,A,3119.7839,N,12121.7632,E,000.1,190.2,280825,006.5,W*6E
2025-08-28T16:01:43.420269,$SYDBG,RSSI4196*11 :cal=0x76 get=0x11[1]
2025-08-28T16:01:43.438537,$GPRMC,080140,A,3119.7840,N,12121.7628,E,000.1,261.8,280825,006.5,W*68
2025-08-28T16:01:43.465997,$GPRMC,080139,A,3119.7841,N,12121.7628,E,000.1,267.0,280825,006.5,W*69
2025-08-28T16:01:43.484351,$SYDBG,TXOK,msg1,08:01:38,NTT=1436,SlochanA*00 :cal=0x43 get=0x0[1]
2025-08-28T16:01:43.502660,$GPR,E,000.1,199.4,280825,006.5,W*68 :cal=0x7b get=0x68[1]
2025-08-28T16:01:43.520976,$GPRMC,080138,A,3119.7841,N,12121.7629,E,000.1,268.5,280825,006.5,W*63
2025-08-28T16:01:43.539343,$SYDBG,TXOK,msg1,08:01:39,NTT=1444,SlotNum=1444,chanA*00 :cal=0x71 get=0x0[1]
2025-08-28T16:01:43.566879,$SYDBG,TXOK,msg1,08:01:39,NTT=1456,SlotNum=1456,chanA*00 :cal=0x71 get=0x0[1]
2025-08-28T16:01:43.585197,$GPRMC,080143,A,3119.7839,N,12121.7625,E,000.1,254.4,280825,006.5,W*62
2025-08-28T16:01:43.612690,$SYDBG,PREPARE MSG1*11 :cal=0x6e geGPRMC,080142,A,3119.7839,N,12121.7626,E,000.1,254.6,280825,006.5,W*62
2025-08-28T16:01:43.630900,$GPRMC7841,N,121216.5,W*60 :cal=0x68 get=0x60[1]
2025-08-28T16:01:43.649240,$GP119.4,280825,006.5,W*6B :cal=0x67 get=0x6b[1]
2025-08-28T16:01:43.667635,$GPRMC,080133,A,3119.7839,N,12121.7632,E,000.1,190.2,280825,006.5,W*6E
2025-08-28T16:01:43.676763,$SYDBG,RSSI4196*11 :cal=0x76 get=0x11[1]
2025-08-28T16:01:43.695070,$GPRMC,080140,A,3119.7840,N,12121.7628,E,000.1,261.8,280825,006.5,W*68
2025-08-28T16:01:43.722481,$GPRMC,080139,A,3119.7841,N,12121.7628,E,000.1,267.0,280825,006.5,W*69
2025-08-28T16:01:43.740852,$GPGGA,080143,3119.7839,N,12121.7625,E,1,04,2.40,2.653,M,0,M,,*5A
2025-08-28T16:01:43.759138,$SYDBG,TXOK,msg1,08:01:38,NTT=1436,SlochanA*00 :cal=0x43 get=0x0[1]
2025-08-28T16:01:43.777510,$GPR,E,000.1,199.4,280825,006.5,W*68 :cal=0x7b get=0x68[1]
2025-08-28T16:01:43.795861,$GPRMC,080138,A,3119.7841,N,12121.7629,E,000.1,268.5,280825,006.5,W*63
2025-08-28T16:01:43.814197,$SYDBG,TXOK,msg1,08:01:39,NTT=1444,SlotNum=1444,chanA*00 :cal=0x71 get=0x0[1]
2025-08-28T16:01:43.841724,$SYDBG,TXOK,msg1,08:01:39,NTT=1456,SlotNum=1456,chanA*00 :cal=0x71 get=0x0[1]
2025-08-28T16:01:43.850855,$SYDBG,PREPARE MSG1*11 :cal=0x6e get=0x11[1]
2025-08-28T16:01:43.878278,$GPRMC,080143,A,3119.7839,N,12121.7625,E,000.1,254.4,280825,006.5,W*62
2025-08-28T16:01:43.887534,$GPGSA,A,3,10,23,25,32,,,,,,,,,4.99,2.40,4.37*06
2025-08-28T16:01:43.905777,$GPRMC7841,N,121216.5,W*60 :cal=0x68 get=0x60[1]
2025-08-28T16:01:43.914951,$GP119.4,280825,006.5,W*6B :cal=0x67 get=0x6b[1]
2025-08-28T16:01:43.933281,$SYDBG,RSSI4196*11 :cal=0x76 get=0x11[1]
2025-08-28T16:01:43.951651,$GPRMC,080133,A,3119.7839,N,12121.7632,E,000.1,190.2,280825,006.5,W*6E
2025-08-28T16:01:43.969903,$GPRMC,080140,A,3119.7840,N,12121.7628,E,000.1,261.8,280825,006.5,W*68
2025-08-28T16:01:43.988291,$GPRMC,080139,A,3119.7841,N,12121.7628,E,000.1,267.0,280825,006.5,W*69
2025-08-28T16:01:44.006576,$SYDBG,TXOK,msg1,08:01:38,NTT=1436,SlochanA*00 :cal=0x43 get=0x0[1]
2025-08-28T16:01:44.033982,$GPGSV,3,1,09,10,70,219,36,12,37,056,00,23,33,165,26,24,08,059,00*7A
2025-08-28T16:01:44.052367,$GPR,E,000.1,199.4,280825,006.5,W*68 :cal=0x7b get=0x68[1]
2025-08-28T16:01:44.070695,$GPRMC,080138,A,3119.7841,N,12121.7629,E,000.1,268.5,280825,006.5,W*63
2025-08-28T16:01:44.088990,$SYDBG,TXOK,msg1,08:01:39,NTT=1444,SlotNum=1444,chanA*00 :cal=0x71 get=0x0[1]
2025-08-28T16:01:44.116541,$SYDBG,TXOK,msg1,08:01:39,NTT=1456,SlotNum=1456,chanA*00 :cal=0x71 get=0x0[1]
2025-08-28T16:01:44.125640,$SYDBG,PREPARE MSG1*11 :cal=0x6e get=0x11[1]
2025-08-28T16:01:44.143952,$GPRMC,080143,A,3119.7839,N,12121.7625,E,000.1,254.4,280825,006.5,W*62
2025-08-28T16:01:44.162311,$GPRMC7841,N,121216.5,W*60 :cal=0x68 get=0x60[1]
2025-08-28T16:01:44.180623,$GP119.4,280825,006.5,W*6B :cal=0x67 get=0x6b[1]
2025-08-28T16:01:44.189806,$SYDBG,RSSI4196*11 :cal=0x76 get=0x11[1]
2025-08-28T16:01:44.208089,$GPRMC,080133,A,3119.7839,N,12121.7632,E,000.1,190.2,280825,006.5,W*6E
2025-08-28T16:01:44.226475,$GPRMC,080140,A,3119.7840,N,12121.7628,E,000.1,261.8,280825,006.5,W*68
2025-08-28T16:01:44.253870,$GPRMC,080139,A,3119.7841,N,12121.7628,E,000.1,267.0,280825,006.5,W*69
2025-08-28T16:01:44.272248,$SYDBG,TXOK,msg1,08:01:38,NTT=1436,SlochanA*00 :cal=0x43 get=0x0[1]
2025-08-28T16:01:44.290614,$GPR,E,000.1,199.4,280825,006.5,W*68 :cal=0x7b get=0x68[1]
2025-08-28T16:01:44.308898,$GPRMC,080138,A,3119.7841,N,12121.7629,E,000.1,268.5,280825,006.5,W*63
2025-08-28T16:01:44.327276,$SYDBG,TXOK,msg1,08:01:39,NTT=1444,SlotNum=1444,chanA*00 :cal=0x71 get=0x0[1]
2025-08-28T16:01:44.354694,$SYDBG,TXOK,msg1,08:01:39,NTT=1456,SlotNum=1456,chanA*00 :cal=0x71 get=0x0[1]
2025-08-28T16:01:44.363874,$SYDBG,PREPARE MSG1*11 :cal=0x6e get=0x11[1]
2025-08-28T16:01:44.391344,$GPRMC,080143,A,3119.7839,N,12121.7625,E,000.1,254.4,280825,006.5,W*62
2025-08-28T16:01:44.400571,$GPRMC7841,N,121216.5,W*60 :cal=0x68 get=0x60[1]
2025-08-28T16:01:44.418901,$GP119.4,280825,006.5,W*6B :cal=0x67 get=0x6b[1]
2025-08-28T16:01:44.427958,$SYDBG,RSSI4196*11 :cal=0x76 get=0x11[1]
2025-08-28T16:01:44.446368,$GPRMC,080133,A,3119.7839,N,12121.7632,E,000.1,190.2,280825,006.5,W*6E
2025-08-28T16:01:44.464707,$GPRMC,080140,A,3119.7840,N,12121.7628,E,000.1,261.8,280825,006.5,W*68
2025-08-28T16:01:44.492075,$GPRMC,080139,A,3119.7841,N,12121.7628,E,000.1,267.0,280825,006.5,W*69
2025-08-28T16:01:44.510407,$SYDBG,TXOK,msg1,08:01:38,NTT=1436,SlochanA*00 :cal=0x43 get=0x0[1]
2025-08-28T16:01:44.528798,$GPR,E,000.1,199.4,280825,006.5,W*68 :cal=0x7b get=0x68[1]
2025-08-28T16:01:44.547064,$GPRMC,080138,A,3119.7841,N,12121.7629,E,000.1,268.5,280825,006.5,W*63
2025-08-28T16:01:44.565458,$SYDBG,TXOK,msg1,08:01:39,NTT=1444,SlotNum=1444,chanA*00 :cal=0x71 get=0x0[1]
2025-08-28T16:01:44.592906,$GPRMC,080144,A,3119.7840,N,12121.7624,E,000.2,258.2,280825,006.5,W*63
2025-08-28T16:01:44.611239,$SYDBG,TXOK,msg1,08:01:39,NTT=1456,SlotNum=1456,chanA*00 :cal=0x71 get=0x0[1]
2025-08-28T16:01:44.647894,$SYDBG,PREPARE MSG1*11 :cal=0x6e get=0x11[GPRMC,080143,A,3119.7839,N,12121.7625,E,000.1,254.4,280825,006.5,W*62
2025-08-28T16:01:44.657012,$GPRMC7841,N,121216.5,W*60 :cal=0x68 get=0x60[1]
2025-08-28T16:01:44.675407,$GP119.4,280825,006.5,W*6B :cal=0x67 get=0x6b[1]
2025-08-28T16:01:44.684564,$SYDBG,RSSI4196*11 :cal=0x76 get=0x11[1]
2025-08-28T16:01:44.702885,$GPRMC,080133,A,3119.7839,N,12121.7632,E,000.1,190.2,280825,006.5,W*6E
2025-08-28T16:01:44.730405,$GPRMC,080140,A,3119.7840,N,12121.7628,E,000.1,261.8,280825,006.5,W*68
2025-08-28T16:01:44.748784,$GPGGA,080144,3119.7840,N,12121.7624,E,1,04,2.40,2.691,M,0,M,,*5C
2025-08-28T16:01:44.766985,$GPRMC,080139,A,3119.7841,N,12121.7628,E,000.1,267.0,280825,006.5,W*69
2025-08-28T16:01:44.785371,$SYDBG,TXOK,msg1,08:01:38,NTT=1436,SlochanA*00 :cal=0x43 get=0x0[1]
2025-08-28T16:01:44.803703,$GPR,E,000.1,199.4,280825,006.5,W*68 :cal=0x7b get=0x68[1]
2025-08-28T16:01:44.822044,$GPRMC,080138,A,3119.7841,N,12121.7629,E,000.1,268.5,280825,006.5,W*63
2025-08-28T16:01:44.849503,$SYDBG,TXOK,msg1,08:01:39,NTT=1444,SlotNum=1444,chanA*00 :cal=0x71 get=0x0[1]
2025-08-28T16:01:44.867782,$GPRMC,080144,A,3119.7840,N,12121.7624,E,000.2,258.2,280825,006.5,W*63
2025-08-28T16:01:44.886027,$GPGSA,A,3,10,23,25,32,,,,,,,,,4.99,2.40,4.37*06
2025-08-28T16:01:44.904463,$SYDBG,TXOK,msg1,08:01:39,NTT=1456,SlotNum=1456,chanA*00 :cal=0x71 get=0x0[1]
2025-08-28T16:01:44.913633,$SYDBG,PREPARE MSG1*11 :cal=0x6e get=0x11[1]
2025-08-28T16:01:44.931955,$GPRMC7841,N,121216.5,W*60 :cal=0x68 get=0x60[1]
2025-08-28T16:01:44.950231,$GP119.4,280825,006.5,W*6B :cal=0x67 get=0x6b[1]
2025-08-28T16:01:44.959439,$SYDBG,RSSI4196*11 :cal=0x76 get=0x11[1]
2025-08-28T16:01:44.977858,$GPRMC,080133,A,3119.7839,N,12121.7632,E,000.1,190.2,280825,006.5,W*6E
2025-08-28T16:01:44.996023,$GPRMC,080140,A,3119.7840,N,12121.7628,E,000.1,261.8,280825,006.5,W*68
2025-08-28T16:01:45.023546,$GPGSV,3,2,09,25,62,094,49,26,05,207,19,28,48,273,00,31,21,252,00*7A
2025-08-28T16:01:45.041869,$GPRMC,080139,A,3119.7841,N,12121.7628,E,000.1,267.0,280825,006.5,W*69
2025-08-28T16:01:45.060206,$SYDBG,TXOK,msg1,08:01:38,NTT=1436,SlochanA*00 :cal=0x43 get=0x0[1]
2025-08-28T16:01:45.078514,$GPR,E,000.1,199.4,280825,006.5,W*68 :cal=0x7b get=0x68[1]
2025-08-28T16:01:45.096873,$GPRMC,080138,A,3119.7841,N,12121.7629,E,000.1,268.5,280825,006.5,W*63
2025-08-28T16:01:45.124339,$SYDBG,TXOK,msg1,08:01:39,NTT=1444,SlotNum=1444,chanA*00 :cal=0x71 get=0x0[1]
2025-08-28T16:01:45.142657,$GPRMC,080144,A,3119.7840,N,12121.7624,E,000.2,258.2,280825,006.5,W*63
2025-08-28T16:01:45.160916,$SYDBG,TXOK,msg1,08:01:39,NTT=1456,SlotNum=1456,chanA*00 :cal=0x71 get=0x0[1]
2025-08-28T16:01:45.179272,$SYDBG,PREPARE MSG1*11 :cal=0x6e get=0x11[1]
2025-08-28T16:01:45.188509,$GPRMC7841,N,121216.5,W*60 :cal=0x68 get=0x60[1]
2025-08-28T16:01:45.206787,$GP119.4,280825,006.5,W*6B :cal=0x67 get=0x6b[1]
2025-08-28T16:01:45.215931,$SYDBG,RSSI4196*11 :cal=0x76 get=0x11[1]
2025-08-28T16:01:45.234289,$GPRMC,080133,A,3119.7839,N,12121.7632,E,000.1,190.2,280825,006.5,W*6E
2025-08-28T16:01:45.261685,$GPRMC,080140,A,3119.7840,N,12121.7628,E,000.1,261.8,280825,006.5,W*68
2025-08-28T16:01:45.279971,$GPRMC,080139,A,3119.7841,N,12121.7628,E,000.1,267.0,280825,006.5,W*69
2025-08-28T16:01:45.298398,$SYDBG,TXOK,msg1,08:01:38,NTT=1436,SlochanA*00 :cal=0x43 get=0x0[1]
2025-08-28T16:01:45.316664,$GPR,E,000.1,199.4,280825,006.5,W*68 :cal=0x7b get=0x68[1]
2025-08-28T16:01:45.334993,$GPRMC,080138,A,3119.7841,N,12121.7629,E,000.1,268.5,280825,006.5,W*63
2025-08-28T16:01:45.362587,$SYDBG,TXOK,msg1,08:01:39,NTT=1444,SlotNum=1444,chanA*00 :cal=0x71 get=0x0[1]
2025-08-28T16:01:45.380809,$GPRMC,080144,A,3119.7840,N,12121.7624,E,000.2,258.2,280825,006.5,W*63
2025-08-28T16:01:45.399093,$SYDBG,TXOK,msg1,08:01:39,NTT=1456,SlotNum=1456,chanA*00 :cal=0x71 get=0x0[1]
2025-08-28T16:01:45.417428,$SYDBG,PREPARE MSG1*11 :cal=0x6e get=0x11[1]
2025-08-28T16:01:45.426607,$GPRMC7841,N,121216.5,W*60 :cal=0x68 get=0x60[1]
2025-08-28T16:01:45.444958,$GP119.4,280825,006.5,W*6B :cal=0x67 get=0x6b[1]
2025-08-28T16:01:45.454074,$SYDBG,RSSI4196*11 :cal=0x76 get=0x11[1]
2025-08-28T16:01:45.481552,$GPRMC,080133,A,3119.7839,N,12121.7632,E,000.1,190.2,280825,006.5,W*6E
2025-08-28T16:01:45.499864,$GPRMC,080140,A,3119.7840,N,12121.7628,E,000.1,261.8,280825,006.5,W*68
2025-08-28T16:01:45.518214,$GPRMC,080139,A,3119.7841,N,12121.7628,E,000.1,267.0,280825,006.5,W*69
2025-08-28T16:01:45.536518,$SYDBG,TXOK,msg1,08:01:38,NTT=1436,SlochanA*00 :cal=0x43 get=0x0[1]
2025-08-28T16:01:45.554920,$GPR,E,000.1,199.4,280825,006.5,W*68 :cal=0x7b get=0x68[1]
2025-08-28T16:01:45.573234,$GPRMC,080145,A,3119.7840,N,12121.7624,E,000.2,261.2,280825,006.5,W*68
2025-08-28T16:01:45.600660,$GPRMC,080138,A,3119.7841,N,12121.7629,E,000.1,268.5,280825,006.5,W*63
2025-08-28T16:01:45.637357,$SYDBG,TXOK,msg1,08:01:39,NTT=1444,SlotNum=1444,chanA*00 :cal=0xGPRMC,080144,A,3119.7840,N,12121.7624,E,000.2,258.2,280825,006.5,W*63
2025-08-28T16:01:45.655731,$SYDBG,TXOK,msg1,08:01:39,NTT=1456,SlotNum=1456,chanA*00 :cal=0x71 get=0x0[1]
2025-08-28T16:01:45.673919,$SYDBG,PREPARE MSG1*11 :cal=0x6e get=0x11[1]
2025-08-28T16:01:45.683091,$GPRMC7841,N,121216.5,W*60 :cal=0x68 get=0x60[1]
2025-08-28T16:01:45.701492,$GP119.4,280825,006.5,W*6B :cal=0x67 get=0x6b[1]
2025-08-28T16:01:45.710643,$SYDBG,RSSI4196*11 :cal=0x76 get=0x11[1]
2025-08-28T16:01:45.728944,$GPGGA,080145,3119.7840,N,12121.7624,E,1,04,2.40,2.814,M,0,M,,*5E
2025-08-28T16:01:45.747282,$GPRMC,080133,A,3119.7839,N,12121.7632,E,000.1,190.2,280825,006.5,W*6E
2025-08-28T16:01:45.774795,$GPRMC,080140,A,3119.7840,N,12121.7628,E,000.1,261.8,280825,006.5,W*68
2025-08-28T16:01:45.793030,$GPRMC,080139,A,3119.7841,N,12121.7628,E,000.1,267.0,280825,006.5,W*69
2025-08-28T16:01:45.811404,$SYDBG,TXOK,msg1,08:01:38,NTT=1436,SlochanA*00 :cal=0x43 get=0x0[1]
2025-08-28T16:01:45.829685,$GPR,E,000.1,199.4,280825,006.5,W*68 :cal=0x7b get=0x68[1]
2025-08-28T16:01:45.847998,$GPRMC,080145,A,3119.7840,N,12121.7624,E,000.2,261.2,280825,006.5,W*68
2025-08-28T16:01:45.866321,$GPGSA,A,3,10,23,25,32,,,,,,,,,4.99,2.40,4.37*06
2025-08-28T16:01:45.884706,$GPRMC,080138,A,3119.7841,N,12121.7629,E,000.1,268.5,280825,006.5,W*63
2025-08-28T16:01:45.912152,$SYDBG,TXOK,msg1,08:01:39,NTT=1444,SlotNum=1444,chanA*00 :cal=0x71 get=0x0[1]
2025-08-28T16:01:45.930495,$SYDBG,TXOK,msg1,08:01:39,NTT=1456,SlotNum=1456,chanA*00 :cal=0x71 get=0x0[1]
2025-08-28T16:01:45.939701,$GPGSV,3,3,09,32,57,341,30*46
2025-08-28T16:01:45.948773,$SYDBG,PREPARE MSG1*11 :cal=0x6e get=0x11[1]
2025-08-28T16:01:45.967083,$GPRMC7841,N,121216.5,W*60 :cal=0x68 get=0x60[1]
2025-08-28T16:01:45.985461,$GP119.4,280825,006.5,W*6B :cal=0x67 get=0x6b[1]
2025-08-28T16:01:45.994624,$SYDBG,RSSI4196*11 :cal=0x76 get=0x11[1]
2025-08-28T16:01:46.012927,$GPRMC,080133,A,3119.7839,N,12121.7632,E,000.1,190.2,280825,006.5,W*6E
2025-08-28T16:01:46.031292,$GPRMC,080140,A,3119.7840,N,12121.7628,E,000.1,261.8,280825,006.5,W*68
2025-08-28T16:01:46.058701,$GPRMC,080139,A,3119.7841,N,12121.7628,E,000.1,267.0,280825,006.5,W*69
2025-08-28T16:01:46.077140,$SYDBG,TXOK,msg1,08:01:38,NTT=1436,SlochanA*00 :cal=0x43 get=0x0[1]
2025-08-28T16:01:46.095349,$GPR,E,000.1,199.4,280825,006.5,W*68 :cal=0x7b get=0x68[1]
2025-08-28T16:01:46.113690,$GPRMC,080145,A,3119.7840,N,12121.7624,E,000.2,261.2,280825,006.5,W*68
2025-08-28T16:01:46.132033,$GPRMC,080138,A,3119.7841,N,12121.7629,E,000.1,268.5,280825,006.5,W*63
2025-08-28T16:01:46.159515,$SYDBG,TXOK,msg1,08:01:39,NTT=1444,SlotNum=1444,chanA*00 :cal=0x71 get=0x0[1]
2025-08-28T16:01:46.177921,$SYDBG,TXOK,msg1,08:01:39,NTT=1456,SlotNum=1456,chanA*00 :cal=0x71 get=0x0[1]
2025-08-28T16:01:46.187073,$SYDBG,PREPARE MSG1*11 :cal=0x6e get=0x11[1]
2025-08-28T16:01:46.205425,$GPRMC7841,N,121216.5,W*60 :cal=0x68 get=0x60[1]
2025-08-28T16:01:46.223659,$GP119.4,280825,006.5,W*6B :cal=0x67 get=0x6b[1]
2025-08-28T16:01:46.232924,$SYDBG,RSSI4196*11 :cal=0x76 get=0x11[1]
2025-08-28T16:01:46.251238,$GPRMC,080133,A,3119.7839,N,12121.7632,E,000.1,190.2,280825,006.5,W*6E
2025-08-28T16:01:46.269665,$GPRMC,080140,A,3119.7840,N,12121.7628,E,000.1,261.8,280825,006.5,W*68
2025-08-28T16:01:46.297020,$GPRMC,080139,A,3119.7841,N,12121.7628,E,000.1,267.0,280825,006.5,W*69
2025-08-28T16:01:46.315321,$SYDBG,TXOK,msg1,08:01:38,NTT=1436,SlochanA*00 :cal=0x43 get=0x0[1]
2025-08-28T16:01:46.333620,$GPR,E,000.1,199.4,280825,006.5,W*68 :cal=0x7b get=0x68[1]
2025-08-28T16:01:46.352155,$GPRMC,080145,A,3119.7840,N,12121.7624,E,000.2,261.2,280825,006.5,W*68
2025-08-28T16:01:46.370354,$GPRMC,080138,A,3119.7841,N,12121.7629,E,000.1,268.5,280825,006.5,W*63
2025-08-28T16:01:46.397929,$SYDBG,TXOK,msg1,08:01:39,NTT=1444,SlotNum=1444,chanA*00 :cal=0x71 get=0x0[1]
2025-08-28T16:01:46.416111,$SYDBG,TXOK,msg1,08:01:39,NTT=1456,SlotNum=1456,chanA*00 :cal=0x71 get=0x0[1]
2025-08-28T16:01:46.434371,$SYDBG,PREPARE MSG1*11 :cal=0x6e get=0x11[1]
2025-08-28T16:01:46.443654,$GPRMC7841,N,121216.5,W*60 :cal=0x68 get=0x60[1]
2025-08-28T16:01:46.461944,$GP119.4,280825,006.5,W*6B :cal=0x67 get=0x6b[1]
2025-08-28T16:01:46.471074,$SYDBG,RSSI4196*11 :cal=0x76 get=0x11[1]
2025-08-28T16:01:46.489465,$GPRMC,080133,A,3119.7839,N,12121.7632,E,000.1,190.2,280825,006.5,W*6E
2025-08-28T16:01:46.516851,$GPRMC,080140,A,3119.7840,N,12121.7628,E,000.1,261.8,280825,006.5,W*68
2025-08-28T16:01:46.535216,$GPRMC,080139,A,3119.7841,N,12121.7628,E,000.1,267.0,280825,006.5,W*69
2025-08-28T16:01:46.553649,$SYDBG,TXOK,msg1,08:01:38,NTT=1436,SlochanA*00 :cal=0x43 get=0x0[1]
2025-08-28T16:01:46.571920,$GPRMC,080146,A,3119.7840,N,12121.7624,E,000.2,261.4,280825,006.5,W*6D
2025-08-28T16:01:46.590105,$GPR,E,000.1,199.4,280825,006.5,W*68 :cal=0x7b get=0x68[1]
2025-08-28T16:01:46.608628,$GPRMC,080145,A,3119.7840,N,12121.7624,E,000.2,261.2,280825,006.5,W*68
2025-08-28T16:01:46.636158,$GPRMC,080138,A,3119.7841,N,12121.7629,E,000.1,268.5,280825,006.5,W*63
2025-08-28T16:01:46.654398,$SYDBG,TXOK,msg1,08:01:39,NTT=1444,SlotNum=1444,chanA*00 :cal=0x71 get=0x0[1]
2025-08-28T16:01:46.690930,$SYDBG,TXOK,msg1,08:01:39,NTT=1456,SlotNum=1456,chanA*00 :cal=0x71 get=SYDBG,PREPARE MSG1*11 :cal=0x6e get=0x11[1]
2025-08-28T16:01:46.700221,$GPRMC7841,N,121216.5,W*60 :cal=0x68 get=0x60[1]
2025-08-28T16:01:46.718504,$GP119.4,280825,006.5,W*6B :cal=0x67 get=0x6b[1]
2025-08-28T16:01:46.727604,$SYDBG,RSSI4196*11 :cal=0x76 get=0x11[1]
2025-08-28T16:01:46.746027,$GPGGA,080146,3119.7840,N,12121.7624,E,1,04,2.40,3.042,M,0,M,,*57
2025-08-28T16:01:46.764346,$GPRMC,080133,A,3119.7839,N,12121.7632,E,000.1,190.2,280825,006.5,W*6E
2025-08-28T16:01:46.791708,$GPRMC,080140,A,3119.7840,N,12121.7628,E,000.1,261.8,280825,006.5,W*68
2025-08-28T16:01:46.810032,$GPRMC,080139,A,3119.7841,N,12121.7628,E,000.1,267.0,280825,006.5,W*69
2025-08-28T16:01:46.828336,$SYDBG,TXOK,msg1,08:01:38,NTT=1436,SlochanA*00 :cal=0x43 get=0x0[1]
2025-08-28T16:01:46.846717,$GPRMC,080146,A,3119.7840,N,12121.7624,E,000.2,261.4,280825,006.5,W*6D
2025-08-28T16:01:46.865016,$GPR,E,000.1,199.4,280825,006.5,W*68 :cal=0x7b get=0x68[1]
2025-08-28T16:01:46.883277,$GPGSA,A,3,10,23,25,32,,,,,,,,,4.99,2.40,4.37*06
2025-08-28T16:01:46.901624,$GPRMC,080145,A,3119.7840,N,12121.7624,E,000.2,261.2,280825,006.5,W*68
2025-08-28T16:01:46.919931,$GPRMC,080138,A,3119.7841,N,12121.7629,E,000.1,268.5,280825,006.5,W*63
2025-08-28T16:01:46.947388,$SYDBG,TXOK,msg1,08:01:39,NTT=1444,SlotNum=1444,chanA*00 :cal=0x71 get=0x0[1]
2025-08-28T16:01:46.965801,$SYDBG,TXOK,msg1,08:01:39,NTT=1456,SlotNum=1456,chanA*00 :cal=0x71 get=0x0[1]
2025-08-28T16:01:46.984063,$GPRMC7841,N,121216.5,W*60 :cal=0x68 get=0x60[1]
2025-08-28T16:01:46.993261,$GP119.4,280825,006.5,W*6B :cal=0x67 get=0x6b[1]
2025-08-28T16:01:47.011614,$SYDBG,RSSI4196*11 :cal=0x76 get=0x11[1]
2025-08-28T16:01:47.029898,$GPGSV,3,1,09,10,70,219,36,12,37,056,00,23,33,165,27,24,08,059,00*7B
2025-08-28T16:01:47.048286,$GPRMC,080133,A,3119.7839,N,12121.7632,E,000.1,190.2,280825,006.5,W*6E
2025-08-28T16:01:47.066508,$GPRMC,080140,A,3119.7840,N,12121.7628,E,000.1,261.8,280825,006.5,W*68
2025-08-28T16:01:47.094000,$GPRMC,080139,A,3119.7841,N,12121.7628,E,000.1,267.0,280825,006.5,W*69
2025-08-28T16:01:47.112376,$SYDBG,TXOK,msg1,08:01:38,NTT=1436,SlochanA*00 :cal=0x43 get=0x0[1]
2025-08-28T16:01:47.130672,$GPRMC,080146,A,3119.7840,N,12121.7624,E,000.2,261.4,280825,006.5,W*6D
2025-08-28T16:01:47.148988,$GPR,E,000.1,199.4,280825,006.5,W*68 :cal=0x7b get=0x68[1]
2025-08-28T16:01:47.167253,$GPRMC,080145,A,3119.7840,N,12121.7624,E,000.2,261.2,280825,006.5,W*68
2025-08-28T16:01:47.185671,$GPRMC,080138,A,3119.7841,N,12121.7629,E,000.1,268.5,280825,006.5,W*63
2025-08-28T16:01:47.213032,$SYDBG,TXOK,msg1,08:01:39,NTT=1444,SlotNum=1444,chanA*00 :cal=0x71 get=0x0[1]
2025-08-28T16:01:47.231489,$SYDBG,TXOK,msg1,08:01:39,NTT=1456,SlotNum=1456,chanA*00 :cal=0x71 get=0x0[1]
2025-08-28T16:01:47.249790,$GPRMC7841,N,121216.5,W*60 :cal=0x68 get=0x60[1]
2025-08-28T16:01:47.258923,$GP119.4,280825,006.5,W*6B :cal=0x67 get=0x6b[1]
2025-08-28T16:01:47.277313,$SYDBG,RSSI4196*11 :cal=0x76 get=0x11[1]
2025-08-28T16:01:47.295711,$GPRMC,080133,A,3119.7839,N,12121.7632,E,000.1,190.2,280825,006.5,W*6E
2025-08-28T16:01:47.313935,$GPRMC,080140,A,3119.7840,N,12121.7628,E,000.1,261.8,280825,006.5,W*68
2025-08-28T16:01:47.332270,$GPRMC,080139,A,3119.7841,N,12121.7628,E,000.1,267.0,280825,006.5,W*69
2025-08-28T16:01:47.359724,$SYDBG,TXOK,msg1,08:01:38,NTT=1436,SlochanA*00 :cal=0x43 get=0x0[1]
2025-08-28T16:01:47.378001,$GPRMC,080146,A,3119.7840,N,12121.7624,E,000.2,261.4,280825,006.5,W*6D
2025-08-28T16:01:47.396388,$GPR,E,000.1,199.4,280825,006.5,W*68 :cal=0x7b get=0x68[1]
2025-08-28T16:01:47.414657,$GPRMC,080145,A,3119.7840,N,12121.7624,E,000.2,261.2,280825,006.5,W*68
2025-08-28T16:01:47.432960,$GPRMC,080138,A,3119.7841,N,12121.7629,E,000.1,268.5,280825,006.5,W*63
2025-08-28T16:01:47.460406,$SYDBG,TXOK,msg1,08:01:39,NTT=1444,SlotNum=1444,chanA*00 :cal=0x71 get=0x0[1]
2025-08-28T16:01:47.478803,$SYDBG,TXOK,msg1,08:01:39,NTT=1456,SlotNum=1456,chanA*00 :cal=0x71 get=0x0[1]
2025-08-28T16:01:47.497108,$GPRMC7841,N,121216.5,W*60 :cal=0x68 get=0x60[1]
2025-08-28T16:01:47.506343,$GP119.4,280825,006.5,W*6B :cal=0x67 get=0x6b[1]
2025-08-28T16:01:47.524585,$SYDBG,RSSI4196*11 :cal=0x76 get=0x11[1]
2025-08-28T16:01:47.542932,$GPRMC,080133,A,3119.7839,N,12121.7632,E,000.1,190.2,280825,006.5,W*6E
2025-08-28T16:01:47.561210,$GPRMC,080140,A,3119.7840,N,12121.7628,E,000.1,261.8,280825,006.5,W*68
2025-08-28T16:01:47.579655,$GPRMC,080147,A,3119.7840,N,12121.7624,E,000.1,262.0,280825,006.5,W*68
2025-08-28T16:01:47.606980,$GPRMC,080139,A,3119.7841,N,12121.7628,E,000.1,267.0,280825,006.5,W*69
2025-08-28T16:01:47.634522,$SYTT=1436,SlochanA*00 :cal=0x43 get=0PRMC,080146,A,3119.7840,N,12121.7624,E,000.2,261.4,280825,006.5,W*6D
2025-08-28T16:01:47.652806,$GPR,E,000.1,199.4,280825,006.5,W*68 :cal=0x7b get=0x68[1]
2025-08-28T16:01:47.671138,$GPRMC,080145,A,3119.7840,N,12121.7624,E,000.2,261.2,280825,006.5,W*68
2025-08-28T16:01:47.689529,$GPRMC,080138,A,3119.7841,N,12121.7629,E,000.1,268.5,280825,006.5,W*63
2025-08-28T16:01:47.716958,$SYDBG,TXOK,msg1,08:01:39,NTT=1444,SlotNum=1444,chanA*00 :cal=0x71 get=0x0[1]
2025-08-28T16:01:47.735301,$GPGGA,080147,3119.7840,N,12121.7624,E,1,04,2.40,3.236,M,0,M,,*57
2025-08-28T16:01:47.753712,$SYDBG,TXOK,msg1,08:01:39,NTT=1456,SlotNum=1456,chanA*00 :cal=0x71 get=0x0[1]
2025-08-28T16:01:47.771968,$GPRMC7841,N,121216.5,W*60 :cal=0x68 get=0x60[1]
2025-08-28T16:01:47.790254,$GP119.4,280825,006.5,W*6B :cal=0x67 get=0x6b[1]
2025-08-28T16:01:47.799500,$SYDBG,RSSI4196*11 :cal=0x76 get=0x11[1]
2025-08-28T16:01:47.817838,$GPRMC,080133,A,3119.7839,N,12121.7632,E,000.1,190.2,280825,006.5,W*6E
2025-08-28T16:01:47.836083,$GPRMC,080140,A,3119.7840,N,12121.7628,E,000.1,261.8,280825,006.5,W*68
2025-08-28T16:01:47.863551,$GPRMC,080147,A,3119.7840,N,12121.7624,E,000.1,262.0,280825,006.5,W*68
2025-08-28T16:01:47.872727,$GPGSA,A,3,10,23,25,32,,,,,,,,,4.99,2.40,4.37*06
2025-08-28T16:01:47.891074,$GPRMC,080139,A,3119.7841,N,12121.7628,E,000.1,267.0,280825,006.5,W*69
2025-08-28T16:01:47.909424,$SYTT=1436,SlochanA*00 :cal=0xe get=0x0[1]
2025-08-28T16:01:47.927704,$GPR,E,000.1,199.4,280825,006.5,W*68 :cal=0x7b get=0x68[1]
2025-08-28T16:01:47.945995,$GPRMC,080145,A,3119.7840,N,12121.7624,E,000.2,261.2,280825,006.5,W*68
2025-08-28T16:01:47.964362,$GPRMC,080138,A,3119.7841,N,12121.7629,E,000.1,268.5,280825,006.5,W*63
2025-08-28T16:01:47.991873,$SYDBG,TXOK,msg1,08:01:39,NTT=1444,SlotNum=1444,chanA*00 :cal=0x71 get=0x0[1]
2025-08-28T16:01:48.010122,$SYDBG,TXOK,msg1,08:01:39,NTT=1456,SlotNum=1456,chanA*00 :cal=0x71 get=0x0[1]
2025-08-28T16:01:48.028556,$GPGSV,3,2,09,25,62,094,48,26,05,207,16,28,48,273,00,31,21,252,00*74
2025-08-28T16:01:48.046807,$GPRMC7841,N,121216.5,W*60 :cal=0x68 get=0x60[1]
2025-08-28T16:01:48.055963,$GP119.4,280825,006.5,W*6B :cal=0x67 get=0x6b[1]
2025-08-28T16:01:48.074232,$SYDBG,RSSI4196*11 :cal=0x76 get=0x11[1]
2025-08-28T16:01:48.092659,$GPRMC,080133,A,3119.7839,N,12121.7632,E,000.1,190.2,280825,006.5,W*6E
2025-08-28T16:01:48.110908,$GPRMC,080140,A,3119.7840,N,12121.7628,E,000.1,261.8,280825,006.5,W*68
2025-08-28T16:01:48.129241,$GPRMC,080147,A,3119.7840,N,12121.7624,E,000.1,262.0,280825,006.5,W*68
2025-08-28T16:01:48.147591,$SYTT=1436,SlochanA*00 :cal=0xe get=0x0[1]
2025-08-28T16:01:48.165939,$GPRMC,080139,A,3119.7841,N,12121.7628,E,000.1,267.0,280825,006.5,W*69
2025-08-28T16:01:48.184393,$GPR,E,000.1,199.4,280825,006.5,W*68 :cal=0x7b get=0x68[1]
2025-08-28T16:01:48.202822,$GPRMC,080145,A,3119.7840,N,12121.7624,E,000.2,261.2,280825,006.5,W*68
2025-08-28T16:01:48.221068,$GPRMC,080138,A,3119.7841,N,12121.7629,E,000.1,268.5,280825,006.5,W*63
2025-08-28T16:01:48.248387,$SYDBG,TXOK,msg1,08:01:39,NTT=1444,SlotNum=1444,chanA*00 :cal=0x71 get=0x0[1]
2025-08-28T16:01:48.266669,$SYDBG,TXOK,msg1,08:01:39,NTT=1456,SlotNum=1456,chanA*00 :cal=0x71 get=0x0[1]
2025-08-28T16:01:48.284963,$GPRMC7841,N,121216.5,W*60 :cal=0x68 get=0x60[1]
2025-08-28T16:01:48.303328,$GP119.4,280825,006.5,W*6B :cal=0x67 get=0x6b[1]
2025-08-28T16:01:48.312524,$SYDBG,RSSI4196*11 :cal=0x76 get=0x11[1]
2025-08-28T16:01:48.330840,$GPRMC,080133,A,3119.7839,N,12121.7632,E,000.1,190.2,280825,006.5,W*6E
2025-08-28T16:01:48.349118,$GPRMC,080140,A,3119.7840,N,12121.7628,E,000.1,261.8,280825,006.5,W*68
2025-08-28T16:01:48.376609,$GPRMC,080147,A,3119.7840,N,12121.7624,E,000.1,262.0,280825,006.5,W*68
2025-08-28T16:01:48.385751,$SYTT=1436,SlochanA*00 :cal=0xe get=0x0[1]
2025-08-28T16:01:48.404108,$GPRMC,080139,A,3119.7841,N,12121.7628,E,000.1,267.0,280825,006.5,W*69
2025-08-28T16:01:48.422479,$GPR,E,000.1,199.4,280825,006.5,W*68 :cal=0x7b get=0x68[1]
2025-08-28T16:01:48.440844,$GPRMC,080145,A,3119.7840,N,12121.7624,E,000.2,261.2,280825,006.5,W*68
2025-08-28T16:01:48.468197,$GPRMC,080138,A,3119.7841,N,12121.7629,E,000.1,268.5,280825,006.5,W*63
2025-08-28T16:01:48.486567,$SYDBG,TXOK,msg1,08:01:39,NTT=1444,SlotNum=1444,chanA*00 :cal=0x71 get=0x0[1]
2025-08-28T16:01:48.504885,$SYDBG,TXOK,msg1,08:01:39,NTT=1456,SlotNum=1456,chanA*00 :cal1]
2025-08-28T16:01:48.514004,$GPRMC7841,N,121216.5,W*60 :cal1]
2025-08-28T16:01:48.523232,$GP119.4,280825,006.5,W*6B :cal1]
2025-08-28T16:01:48.532421,$SYDBG,RSSI4196*11 :cal=0x76 ge1]
2025-08-28T16:01:48.559855,$GPRMC,080148,A,3119.7840,N,12121.7624,E,000.1,265.8,280825,006.5,W*68
2025-08-28T16:01:48.587320,$GPRMC,080133,A,3119.7839,N,12121.7632,E,000.1,190.2,21.7628,E,000.1,261.8,280825,006.5,W*68
2025-08-28T16:01:48.587529,$GPRMYREPARE MSG1*11
2025-08-28T16:01:48.605746,$GPRMC,080139,A,3,12121.7628,E,000.1,267.0,280825,006.5,W*69
2025-08-28T16:01:48.623933,$GPR,E,000.1,199.4,280825al=0x7b get=0x68[1]
2025-08-28T16:01:48.642318,$GPRMC,080145,A,3119.7840,N,12121.7624,E,000.2,261.2,280825,006.5,W*68
2025-08-28T16:01:48.660622,$GPRMC,080138,A,3119.7841,N,12121.7629,E,000.1,268.5,280825,006.5,W*63
2025-08-28T16:01:48.678987,$GPGGA,080148,3119.7840,N,12121.7624,E,1,04,2.40,3.478,M,0,M,,*54
2025-08-28T16:01:48.706418,$SYDBG,TXOK,msg1,08:01:39,NTT=1444,SlotNum=1444,chanA*00 :cal=0x71 get=0x0[1]
2025-08-28T16:01:48.706630,$SYDBG,RSSI6485*11
2025-08-28T16:01:48.733875,$SYDBG,TXOK,msg1,08:01:39,NTT=1456,SlotNum=1456,chanA*00 :cal=0x71 get=0x0[1]
2025-08-28T16:01:48.743059,$GPRMC7841,N,121216.5,W*60 :cal=0x68 get=0x60[1]
2025-08-28T16:01:48.761419,$GP119.4,280825,006.5,W*6B :cal=0x67 get=0x6b[1]
2025-08-28T16:01:48.770570,$SYDBG,RSSI4196*11 :cal=0x76 get=0x11[1]
2025-08-28T16:01:48.788979,$GPRMC,080148,A,3119.7840,N,12121.7624,E,000.1,265.8,280825,006.5,W*68
2025-08-28T16:01:48.807219,!AIVDO,1,1,,B,12vg200001`cSNhAsE4:??wN0000,0*00
2025-08-28T16:01:48.825535,$SYDBG,TXOK,msg1,08:01:49,NTT=1816,SlotNum=1816,chanB*00
2025-08-28T16:01:48.871330,$GPRMC,080133,A,3119.7839,N,12121.7632,E,000.1,190.2,21.7628,E,000.1,261.8,280825,006.5,W*68 :cal=0x1 get=0PGSA,A,3,10,23,25,32,,,,,,,,,4.99,2.40,4.37*06
2025-08-28T16:01:48.880506,$GPRMYREPARE MSG1*11 :cal=0x8 get=0x11[1]
2025-08-28T16:01:48.898839,$GPRMC,080139,A,3,12121.7628,E,000.1,269 :cal=0x16 get=0x69[1]
2025-08-28T16:01:48.917128,$GPRMC,080145,A,3119.7840,N,12121.7624,E,000.2,261.2,280825,006.5,W*68
2025-08-28T16:01:48.944621,$GPRMC,080138,A,3119.7841,N,12121.7629,E,000.1,268.5,280825,006.5,W*63
2025-08-28T16:01:48.944832,$GPGSV,3,3,09,32,57,341,31*47
2025-08-28T16:01:48.972123,$SYDBG,TXOK,msg1,08:01:39,NTT=1444,SlotNum=1444,chanA*00 :cal=0x71 get=0x0[1]
2025-08-28T16:01:48.981306,$SYDBG,RSSI6485*11 :cal=0x73 get=0x11[1]
2025-08-28T16:01:49.008782,$SYDBG,TXOK,msg1,08:01:39,NTT=1456,SlotNum=1456,chanA*00 :cal=0x71 get=0x0[1]
2025-08-28T16:01:49.017961,$GPRMC7841,N,121216.5,W*60 :cal=0x68 get=0x60[1]
2025-08-28T16:01:49.036269,$GP119.4,280825,006.5,W*6B :cal=0x67 get=0x6b[1]
2025-08-28T16:01:49.045436,$SYDBG,RSSI4196*11 :cal=0x76 get=0x11[1]
2025-08-28T16:01:49.063780,$GPRMC,080148,A,3119.7840,N,12121.7624,E,000.1,265.8,280825,006.5,W*68
2025-08-28T16:01:49.072955,$AIMSG,S,0*32
2025-08-28T16:01:49.082020,$SYDBG,PREPARE VDM REPEAT*11
2025-08-28T16:01:49.082210,$SYDBG,RSSI6428*11
2025-08-28T16:01:49.109559,$SYDBG,TXOK,msg1,08:01:49,NTT=1816,SlotNum=1816,chanB*00 :cal=0x75 get=0x0[1]
2025-08-28T16:01:49.146156,$GPRMC,080133,A,3119.7839,N,12121.7632,E,000.1,190.2,21.7628,E,000.1,261.8,280825,006.5,W*68 :cal=0x1 get=0x68[1]
2025-08-28T16:01:49.155339,$GPRMYREPARE MSG1*11 :cal=0x8 get=0x11[1]
2025-08-28T16:01:49.164503,!AIVDO,1,1,,B,12vg200001`cSNhAsE4:??wN0000,0*00
2025-08-28T16:01:49.182921,$SYDBG,TXOK,msg1,08:01:49,NTT=1828,SlotNum=1828,chanB*00
2025-08-28T16:01:49.201195,$GPRMC,080145,A,3119.7840,N,12121.7624,E,000.2,261.2,280825,006.5,W*68
2025-08-28T16:01:49.228679,$GPRMC,080138,A,3119.7841,N,12121.7629,E,000.1,268.5,280825,006.5,W*63
2025-08-28T16:01:49.237812,$SYDBG,TXOK,msg1,08:01:39,NTT=1444,SlotNumal1]
2025-08-28T16:01:49.265243,$SYDBG,TXOK,msg1,08:01:39,NTT=1456,SlotNum=1456,chanA*00 :cal=0x71 get=0x0[1]
2025-08-28T16:01:49.274487,$GPRMC7841,N,121216.5,W*60 :cal=0x68 get=0x1]
2025-08-28T16:01:49.283637,$GP119.4,280825,006.5,W*6B :cal1]
2025-08-28T16:01:49.292850,$SYDBG,RSSI4196*11 :cal=0x76 ge1]
2025-08-28T16:01:49.320249,$GPRMC,080148,A,3119.7840,N,12121.7624,E,000.1,265.8,280825,006.5,W*68
2025-08-28T16:01:49.329556,$SYDBG,PREPARE VDM REPEAT*11 :ca11 :cal=0x74 get=0x11[1]
2025-08-28T16:01:49.375389,$SYDBGNTT=1816,SlotNum=1816,chanB*00 :cal,080133,A,3119.7839,N,12121.7632,E,000.1,190.2,21.7628,E,000.1,261.8,280825,006.5,W*68 :cal=0x1 get=0x68[1]
2025-08-28T16:01:49.384496,$GPRMYREPARE MSG1*11 :cal=0x8 get=0x11[1]
2025-08-28T16:01:49.393628,$AIMSG,S,0*32
2025-08-28T16:01:49.402834,$SYDBG,PREPARE VDM REPEAT*11
2025-08-28T16:01:49.403185,$SYDBG,RSSI6358*11
2025-08-28T16:01:49.430294,$SYDBG,TXOK,msg1,08:01:49,NTT=1828,SlotNum=1828,chanB*00 :cal=0x75 get=0x0[1]
2025-08-28T16:01:49.448622,$GPRMC,080145,A,3119.7840,N,12121.7624,E,000.2,261.2,280825,006.5,W*68
2025-08-28T16:01:49.466995,$GPRMC,080138,A,3119.7841,N,12121.7629,E,000.1,268.5,280825,006.5,W*63
2025-08-28T16:01:49.485170,!AIVDO,1,1,,B,12vg200001`cSNhAsE4:??wN0000,0*00
2025-08-28T16:01:49.503542,$SYDBG,TXOK,msg1,08:01:49,NTT=1841,SlotNum=1841,chanB*00
2025-08-28T16:01:49.521948,$SYDBG,TXOK,9,NTT=1456,SlotNum=1456,chanA*00 :cal=0x71 get=0x0[1]
2025-08-28T16:01:49.549362,$GPRMC7841,N,121216.5,W*60 :cal=0x68 get=0x60[1]825,006.5,W*6B :cal=0x67 get=0x6b[1]
2025-08-28T16:01:49.558532,$SYDBG,RSSI4196*11 :cal=0x76 get=0x11[1]
2025-08-28T16:01:49.558666,$G48
2025-08-28T16:01:49.576984,$GPRMC,080149,A,3119.7840,N,12121.7624,E,000.1,272.9,280825,006.5,W*6E
2025-08-28T16:01:49.595197,$SYDBG,PREPARE VDM REPEAT*11 :cal=0x6e get=0x11[1]
2025-08-28T16:01:49.595401,$get=0x0[1]
2025-08-28T16:01:49.613466,$GPRMYREPARE MSG1*11 :cal=0x8 get=0x11[1]
2025-08-28T16:01:49.622720,$SYDBG,PREPARE VDM REPEAT*11 :cal=0x6e get=0x11[1]
2025-08-28T16:01:49.640983,$SYDBG,RSSI6358*11 :cal=0x74 get=0x11[1]
2025-08-28T16:01:49.659358,$SYDBG,TXOK,msg1,08:01:49,NTT=1828,SlotNum=1828,chanB*00 :caget=0x0[1]
2025-08-28T16:01:49.677641,$GPRMC,080145,A,3119.7840,N,12121.7624,E,000.2,261.2,280825,006.5,W*68
2025-08-28T16:01:49.695952,$GPRMC,080138,A,3119.7841,N,12121.7629,E,000.1,268.5,280825,006.5,W*63
2025-08-28T16:01:49.714311,$GPGGA,080149,3119.7840,N,12121.7624,E,1,04,2.40,3.650,M,0,M,,*5D
2025-08-28T16:01:49.723409,$AIMSG,S,0*32
2025-08-28T16:01:49.732585,$SYDBG,PREPARE VDM REPEAT*11
2025-08-28T16:01:49.741756,$SYDBG,RSSI6341*11
2025-08-28T16:01:49.769221,$SYDBG,TXOK,msg1,08:01:49,NTT=1841,SlotNum=1841,chanB*00 :cal=56,SlotNum=1456,chanA*00 :cal=0x2f get=0x0[1]
2025-08-28T16:01:49.778441,$GPRMC7841,N,121216.5,W*60 :cal=0x68 get=0x60[1]
2025-08-28T16:01:49.796792,$SYDBG,RSSI4196*11 :cal=0x76 get=0x11[1]
2025-08-28T16:01:49.805937,!AIVDO,1,1,,B,12vg200001`cSNhAsE4:??wN0000,0*00
2025-08-28T16:01:49.824214,$SYDBG,TXOK,msg1,08:01:50,NTT=1853,SlotNum=1853,chanB*00
2025-08-28T16:01:49.842567,$GPRMC,080149,A,3119.7840,N,12121.7624,E,000.1,272.9,280825,006.5,W*6E
2025-08-28T16:01:49.860924,$SYDBG,PREPARE VDM REPEAT*11 :cal=0x6e get=0x11[1]
2025-08-28T16:01:49.879175,$GPGSA,A,3,10,23,25,32,,,,,,,,,4.99,2.40,4.37*06
2025-08-28T16:01:49.888389,$GPRMYREPARBG,PREPARE VDM REPEAT*11 :cal=0x6e get=0x11[1]
2025-08-28T16:01:49.906689,$SYDBG,RS6358*11 :cal=0x74 get=0x11[1]
2025-08-28T16:01:49.943322,$SYDOK,msg1,08:01:49,NTT=1828,SlotNum=1828,chanB*00 :cal=0x75 get=0x0[1]MC,080145,A,3119.7840,N,12121.7624,E,000.2,261.2,280825,006.5,W*68
2025-08-28T16:01:49.961757,$GPRMC,080138,A,3119.7841,N,12121.7629,E,000.1,268.5,280825,006.5,W*63
2025-08-28T16:01:49.979996,$SYDBG,PREPARE VDM REPEAT*11 :cal=0x6e get=0x11[1]
2025-08-28T16:01:49.989127,$SYDBG,RSSI6341*11 :cal=0x7c get=0x11[1]
2025-08-28T16:01:50.016691,$SYDBG,TXOK,msg1,08:01:49,NTT=1841,SlotNum=1841,chanB*00 :cal=0x75 get=0x0[1]
2025-08-28T16:01:50.034976,$GPGSV,3,1,09,10,70,219,35,12,37,056,00,23,33,165,27,24,08,059,00*78
2025-08-28T16:01:50.044161,$GPRMC7841,N,121216.5,W*60 :cal=0x68 get=0x60[1]
2025-08-28T16:01:50.062471,$SYDBG,RSSI4196*11 :cal=0x76 get=0x11[1]
2025-08-28T16:01:50.062603,$AIMSG,S,0*32
2025-08-28T16:01:50.071762,$SYDBG,PREPARE VDM REPEAT*11
2025-08-28T16:01:50.080835,$SYDBG,RSSI6321*11
2025-08-28T16:01:50.099173,$SYDBG,TXOK,msg1,08:01:50,NTT=1853,SlotNum=1853,chanB*00 :cal=0x7d get=0x0[1]
2025-08-28T16:01:50.126562,$GPRMC,080149,A,3119.7840,N,12121.7624,E,000.1,272.9,280825,006.5,W*6E
2025-08-28T16:01:50.135854,$SYDBG,PREPARE VDM REPEAT*11 :cal=0x6e get=0x11[1]
2025-08-28T16:01:50.154096,!AIVDO,1,1,,B,12vg200001`cSNhAsE4:??wN0000,0*00
2025-08-28T16:01:50.172331,$SYDBG,TXOK,msg1,08:01:50,NTT=1865,SlotNum=1865,chanB*00
2025-08-28T16:01:50.181476,$GPRMYREPARBG,PREPARE VDM REPEAT*11 :cal=0x25 get=0x11[1]
2025-08-28T16:01:50.199780,$SYDBG,RS6358*11 :cal=0x6e get=0x11[1]
2025-08-28T16:01:50.218038,$SYDOK,msg1,08:01:49,NTT=1828,SlotNum=1828,chanB*00 :cal=0x50 get=0x0[1]
2025-08-28T16:01:50.227298,$SYDBG,PREPARE VDM REPEAT*11x6e get=0x11[1]
2025-08-28T16:01:50.245637,$GPRMC,080138,A629,E,000.1,268.5,280825,006.5,W*63
2025-08-28T16:01:50.263879,$SYDBG,RSSI6341*11 :cal=0x7c get=1lotNum=1841,chanB*00 :cal=0x75 get=0x0[1]
2025-08-28T16:01:50.282304,$GPRMC7841,N,121216.5,W*60 :cal=0x68 get=0x60[1]
2025-08-28T16:01:50.291396,$SYDBG,RSSI4196*11 :cal=0x76 get=0x11[1]
2025-08-28T16:01:50.309722,$SYDBG,PREPARE VDM REPEAT*11 :cal=0x6e get=0x11[1]
2025-08-28T16:01:50.318934,$SYDBG,RSSI6321*11 :cal=0x7a get=0x11[1]
2025-08-28T16:01:50.355512,$SYDBG,TXOK,msg=1853,SlotNum=1853,chanB*00 :cal=0xA,3119.7840,N,12121.7624,E,000.1,272.9,280825,006.5,W*6E
2025-08-28T16:01:50.364699,$SYDBG,PREPARE VDM REPEAT*11 :cal=0x6e get=0x11[1]
2025-08-28T16:01:50.373862,$AIMSG,S,0*32
2025-08-28T16:01:50.382928,$SYDBG,PREPARE VDM REPEAT*11
2025-08-28T16:01:50.383108,$SYDBG,RSSI6281*11
2025-08-28T16:01:50.410506,$SYDBG,TXOK,msg1,08:01:50,NTT=1865,SlotNum=1865,chanB*00 :cal=0x7d get=0x0[1]
2025-08-28T16:01:50.428772,$GPRMYREPARBG,PREPARE VDM REPEAT*11 :cal=0x25 get=0x11[1]
2025-08-28T16:01:50.437937,$SYDBG,RS6358*11 :cal=0x6e get=0x11[1]
2025-08-28T16:01:50.456259,$SYDOK,msg1,08:01:49,NTT=1828,SlotNum=1828,chanB*00 :cal=0x50 get=0x0[1]
2025-08-28T16:01:50.474561,!AIVDO,1,1,,B,12vg200001`cSNhAsE4:??wN0000,0*00
2025-08-28T16:01:50.483791,$SYDBG,TXOK,msg,SlotNum=18700
2025-08-28T16:01:50.492949,$SYDBG,PREPARE VDM REPEAT*11 :cal=0x6e get=0x11[1]
2025-08-28T16:01:50.511345,$GPRMC,080138,A629,E,000.1,268.5,280825,006.5,W*63 :cal=0x7 get=0x63[1]
2025-08-28T16:01:50.529608,$SYDBG,RSSI6341*11 :cal=0x7c ge1]
2025-08-28T16:01:50.538738,$GPRMC7841,N,121216.5,W*60 :cal1]
2025-08-28T16:01:50.566228,$SYDBG,RSSI4196*11 :cal=0x76 ge1110150,A,3119.7841,N,12121.7624,E,000.1,279.9,280825,006.5,W*6C
2025-08-28T16:01:50.584566,$SYDBG,TXOK,msg=1853,SlotNum=1853,chanB*00 :cal=0xe get=0x0[1]
2025-08-28T16:01:50.593749,$SYDBG,PREPARE VDM REPEAT*11 :cal=0x6e get=0x11[1]
2025-08-28T16:01:50.611994,$SYDBG,PREPARE VDM REPEAT*11 :cal=0x6e get=0x11[1]
2025-08-28T16:01:50.621210,$SYDBG,RSSI6281*11 :cal=0x71 get=0x11[1]
2025-08-28T16:01:50.648735,$SYDBG,TXOK,msg1,08:01:50,NTT=1865,SlotNum=1865,chanB*00 :cal=0x7d get=0x0[1]
2025-08-28T16:01:50.666986,$GPRMYREPARBG,PREPARE VDM REPEAT*11 :cal=0x25 get=0x11[1]
2025-08-28T16:01:50.676115,$SYDBG,RS6358*11 :cal=0x6e get=0x11[1]
2025-08-28T16:01:50.694534,$SYDOK,msg1,08:01:49,NTT=1828,SlotNum=1828,chanB*00 :cal=0x50 get=0x0[1]
2025-08-28T16:01:50.703661,$AIMSG,S,0*32
2025-08-28T16:01:50.721977,$GPGGA,080150,3119.7841,N,12121.7624,E,1,04,2.40,3.882,M,0,M,,*55
2025-08-28T16:01:50.731112,$SYDBG,PREPARE VDM REPEAT*11
2025-08-28T16:01:50.731295,$SYDBG,RSSI6145*11
2025-08-28T16:01:50.749516,$SYDBG,PREPARE VDM REPEAT*11 :cal=0x6e get=0x11[1]
2025-08-28T16:01:50.767875,$GPRMC,080138,A629,E,000.1,268.5,280825,006.5,W*63 :cal=0:cal=0x7c get=0x11[1]
